[
    {
        "item": "http://www.wikidata.org/entity/Q3596875",
        "name": "105 Stadium",
        "coord": "Point(8.87972 44.4121)",
        "lat": "44.4121",
        "lon": "8.87972",
        "article": "https://it.wikipedia.org/wiki/RDS_Stadium_(Genova)"
    },
    {
        "item": "http://www.wikidata.org/entity/Q118147526",
        "name": "ASD Club Sportivo Urania",
        "coord": "Point(8.979150069 44.391905619)",
        "lat": "44.391905619444",
        "lon": "8.9791500694444",
        "article": "https://it.wikipedia.org/wiki/ASD_Club_Sportivo_Urania"
    },
    {
        "item": "http://www.wikidata.org/entity/Q2822659",
        "name": "Accademia ligustica di belle arti",
        "coord": "Point(8.934525 44.40768333)",
        "lat": "44.40768333",
        "lon": "8.934525",
        "article": "https://it.wikipedia.org/wiki/Accademia_ligustica_di_belle_arti"
    },
    {
        "item": "http://www.wikidata.org/entity/Q623163",
        "name": "Acquario di Genova",
        "coord": "Point(8.926508 44.41019)",
        "lat": "44.41019",
        "lon": "8.926508",
        "article": "https://it.wikipedia.org/wiki/Acquario_di_Genova"
    },
    {
        "item": "http://www.wikidata.org/entity/Q2121934",
        "name": "Acquasanta",
        "coord": "Point(8.767830555 44.456869444)",
        "lat": "44.456869444444",
        "lon": "8.7678305555556",
        "article": "https://it.wikipedia.org/wiki/Acquasanta_(citt%C3%A0_metropolitana_di_Genova)"
    },
    {
        "item": "http://www.wikidata.org/entity/Q1431383",
        "name": "Aeroporto di Genova-Sestri",
        "coord": "Point(8.837563 44.41348)",
        "lat": "44.41348",
        "lon": "8.837563",
        "article": "https://it.wikipedia.org/wiki/Aeroporto_di_Genova-Sestri"
    },
    {
        "item": "http://www.wikidata.org/entity/Q3606528",
        "name": "Aggio",
        "coord": "Point(9.0125 44.466388888)",
        "lat": "44.466388888889",
        "lon": "9.0125",
        "article": "https://it.wikipedia.org/wiki/Aggio_(Genova)"
    },
    {
        "item": "http://www.wikidata.org/entity/Q833231",
        "name": "Albaro",
        "coord": "Point(8.965833333 44.396388888)",
        "lat": "44.396388888889",
        "lon": "8.9658333333333",
        "article": "https://it.wikipedia.org/wiki/Albaro"
    },
    {
        "item": "http://www.wikidata.org/entity/Q3607964",
        "name": "Albergo dei Poveri",
        "coord": "Point(8.92917 44.418)",
        "lat": "44.418",
        "lon": "8.92917",
        "article": "https://it.wikipedia.org/wiki/Albergo_dei_Poveri_(Genova)"
    },
    {
        "item": "http://www.wikidata.org/entity/Q123029713",
        "name": "Antica Farmacia Sant'Anna",
        "coord": "Point(8.9371395 44.4153122)",
        "lat": "44.4153122",
        "lon": "8.9371395",
        "article": "https://it.wikipedia.org/wiki/Antica_Farmacia_Sant%27Anna_(Genova)"
    },
    {
        "item": "http://www.wikidata.org/entity/Q3620822",
        "name": "Apparizione",
        "coord": "Point(8.99972 44.4064)",
        "lat": "44.4064",
        "lon": "8.99972",
        "article": "https://it.wikipedia.org/wiki/Apparizione_(Genova)"
    },
    {
        "item": "http://www.wikidata.org/entity/Q16167939",
        "name": "Archivio di Stato di Genova",
        "coord": "Point(8.936801 44.403254)",
        "lat": "44.403254",
        "lon": "8.936801",
        "article": "https://it.wikipedia.org/wiki/Archivio_di_Stato_di_Genova"
    },
    {
        "item": "http://www.wikidata.org/entity/Q3621768",
        "name": "Arco di Trionfo",
        "coord": "Point(8.94496 44.40307)",
        "lat": "44.40307",
        "lon": "8.94496",
        "article": "https://it.wikipedia.org/wiki/Arco_della_Vittoria"
    },
    {
        "item": "http://www.wikidata.org/entity/Q50404855",
        "name": "Ascensore Magenta-Crocco",
        "coord": "Point(8.93799 44.41602)",
        "lat": "44.41602",
        "lon": "8.93799",
        "article": "https://it.wikipedia.org/wiki/Ascensore_Magenta-Crocco"
    },
    {
        "item": "http://www.wikidata.org/entity/Q24934886",
        "name": "Ascensore di Quezzi",
        "coord": "Point(8.971611 44.421173)",
        "lat": "44.421173",
        "lon": "8.971611",
        "article": "https://it.wikipedia.org/wiki/Ascensore_di_Quezzi"
    },
    {
        "item": "http://www.wikidata.org/entity/Q3636721",
        "name": "Batteria Mameli",
        "coord": "Point(8.80590556 44.42730556)",
        "lat": "44.42730556",
        "lon": "8.80590556",
        "article": "https://it.wikipedia.org/wiki/Batteria_Mameli"
    },
    {
        "item": "http://www.wikidata.org/entity/Q3636722",
        "name": "Batteria Monte Moro",
        "coord": "Point(9.02546944 44.39069444)",
        "lat": "44.39069444",
        "lon": "9.02546944",
        "article": "https://it.wikipedia.org/wiki/Batteria_Monte_Moro"
    },
    {
        "item": "http://www.wikidata.org/entity/Q3636723",
        "name": "Batteria San Giuliano",
        "coord": "Point(8.95978333 44.39268889)",
        "lat": "44.39268889",
        "lon": "8.95978333",
        "article": "https://it.wikipedia.org/wiki/Batteria_San_Giuliano"
    },
    {
        "item": "http://www.wikidata.org/entity/Q3636724",
        "name": "Batteria San Martino",
        "coord": "Point(8.96848333 44.40358333)",
        "lat": "44.40358333",
        "lon": "8.96848333",
        "article": "https://it.wikipedia.org/wiki/Batteria_San_Martino"
    },
    {
        "item": "http://www.wikidata.org/entity/Q3636725",
        "name": "Batteria del Vagno",
        "coord": "Point(8.95245556 44.39160556)",
        "lat": "44.39160556",
        "lon": "8.95245556",
        "article": "https://it.wikipedia.org/wiki/Batteria_del_Vagno"
    },
    {
        "item": "http://www.wikidata.org/entity/Q3637034",
        "name": "Bavari",
        "coord": "Point(9.01833333 44.43277778)",
        "lat": "44.43277778",
        "lon": "9.01833333",
        "article": "https://it.wikipedia.org/wiki/Bavari_(Genova)"
    },
    {
        "item": "http://www.wikidata.org/entity/Q3637888",
        "name": "Belvedere",
        "coord": "Point(8.89333333 44.41722222)",
        "lat": "44.41722222",
        "lon": "8.89333333",
        "article": "https://it.wikipedia.org/wiki/Belvedere_(Genova)"
    },
    {
        "item": "http://www.wikidata.org/entity/Q3639586",
        "name": "Biblioteca Franzoniana",
        "coord": "Point(8.9371592 44.4053008)",
        "lat": "44.4053008",
        "lon": "8.9371592",
        "article": "https://it.wikipedia.org/wiki/Biblioteca_Franzoniana"
    },
    {
        "item": "http://www.wikidata.org/entity/Q48811020",
        "name": "Biblioteca Internazionale per ragazzi Edmondo de Amicis",
        "coord": "Point(8.919034 44.4076974)",
        "lat": "44.4076974",
        "lon": "8.919034",
        "article": "https://it.wikipedia.org/wiki/Biblioteca_Internazionale_per_ragazzi_Edmondo_de_Amicis"
    },
    {
        "item": "http://www.wikidata.org/entity/Q3639568",
        "name": "Biblioteca civica Berio",
        "coord": "Point(8.93867778 44.40463611)",
        "lat": "44.40463611",
        "lon": "8.93867778",
        "article": "https://it.wikipedia.org/wiki/Biblioteca_civica_Berio"
    },
    {
        "item": "http://www.wikidata.org/entity/Q61771810",
        "name": "Biblioteca civica Gian Luigi Lercari",
        "coord": "Point(8.961669 44.4083316)",
        "lat": "44.4083316",
        "lon": "8.961669",
        "article": "https://it.wikipedia.org/wiki/Biblioteca_civica_Gian_Luigi_Lercari"
    },
    {
        "item": "http://www.wikidata.org/entity/Q3639620",
        "name": "Biblioteca universitaria di Genova",
        "coord": "Point(8.922857 44.416557)",
        "lat": "44.416557",
        "lon": "8.922857",
        "article": "https://it.wikipedia.org/wiki/Biblioteca_universitaria_di_Genova"
    },
    {
        "item": "http://www.wikidata.org/entity/Q3640190",
        "name": "Biosfera",
        "coord": "Point(8.92548611 44.40984167)",
        "lat": "44.40984167",
        "lon": "8.92548611",
        "article": "https://it.wikipedia.org/wiki/Biosfera_(Genova)"
    },
    {
        "item": "http://www.wikidata.org/entity/Q866267",
        "name": "Biscione",
        "coord": "Point(8.96083333 44.42444444)",
        "lat": "44.42444444",
        "lon": "8.96083333",
        "article": "https://it.wikipedia.org/wiki/Biscione_(Genova)"
    },
    {
        "item": "http://www.wikidata.org/entity/Q3641485",
        "name": "Boccadasse",
        "coord": "Point(8.97453 44.38972)",
        "lat": "44.38972",
        "lon": "8.97453",
        "article": "https://it.wikipedia.org/wiki/Boccadasse"
    },
    {
        "item": "http://www.wikidata.org/entity/Q261570",
        "name": "Bolzaneto",
        "coord": "Point(8.90222222 44.45888889)",
        "lat": "44.45888889",
        "lon": "8.90222222",
        "article": "https://it.wikipedia.org/wiki/Bolzaneto"
    },
    {
        "item": "http://www.wikidata.org/entity/Q3642510",
        "name": "Borgo Pila",
        "coord": "Point(8.94833333 44.40444444)",
        "lat": "44.40444444",
        "lon": "8.94833333",
        "article": "https://it.wikipedia.org/wiki/Borgo_Pila"
    },
    {
        "item": "http://www.wikidata.org/entity/Q893562",
        "name": "Borgoratti",
        "coord": "Point(9.0 44.4167)",
        "lat": "44.4167",
        "lon": "9.0",
        "article": "https://it.wikipedia.org/wiki/Borgoratti"
    },
    {
        "item": "http://www.wikidata.org/entity/Q3642831",
        "name": "Borzoli",
        "coord": "Point(8.86611111 44.43583333)",
        "lat": "44.43583333",
        "lon": "8.86611111",
        "article": "https://it.wikipedia.org/wiki/Borzoli"
    },
    {
        "item": "http://www.wikidata.org/entity/Q3649084",
        "name": "Ca' Nuova",
        "coord": "Point(8.765 44.43527778)",
        "lat": "44.43527778",
        "lon": "8.765",
        "article": "https://it.wikipedia.org/wiki/Ca%27_Nuova"
    },
    {
        "item": "http://www.wikidata.org/entity/Q3651971",
        "name": "Campi",
        "coord": "Point(8.88166667 44.42166667)",
        "lat": "44.42166667",
        "lon": "8.88166667",
        "article": "https://it.wikipedia.org/wiki/Campi_(Genova)"
    },
    {
        "item": "http://www.wikidata.org/entity/Q3654718",
        "name": "Campo sportivo di Ponte Carrega",
        "coord": "Point(8.960531 44.435151)",
        "lat": "44.435151",
        "lon": "8.960531",
        "article": "https://it.wikipedia.org/wiki/Campo_sportivo_di_Ponte_Carrega"
    },
    {
        "item": "http://www.wikidata.org/entity/Q17809517",
        "name": "Campopisano",
        "coord": "Point(8.93212 44.4038)",
        "lat": "44.4038",
        "lon": "8.93212",
        "article": "https://it.wikipedia.org/wiki/Campopisano"
    },
    {
        "item": "http://www.wikidata.org/entity/Q113768823",
        "name": "Canepari",
        "coord": "Point(8.893704329 44.432503154)",
        "lat": "44.432503154304",
        "lon": "8.8937043298863",
        "article": "https://it.wikipedia.org/wiki/Canepari_(metropolitana_di_Genova)"
    },
    {
        "item": "http://www.wikidata.org/entity/Q3655773",
        "name": "Cantieri navali di Voltri",
        "coord": "Point(8.758929 44.426885)",
        "lat": "44.426885",
        "lon": "8.758929",
        "article": "https://it.wikipedia.org/wiki/Cantieri_navali_di_Voltri"
    },
    {
        "item": "http://www.wikidata.org/entity/Q683384",
        "name": "Carignano",
        "coord": "Point(8.93805556 44.40083333)",
        "lat": "44.40083333",
        "lon": "8.93805556",
        "article": "https://it.wikipedia.org/wiki/Carignano_(Genova)"
    },
    {
        "item": "http://www.wikidata.org/entity/Q3661214",
        "name": "Casa del Boia",
        "coord": "Point(8.92777778 44.40611111)",
        "lat": "44.40611111",
        "lon": "8.92777778",
        "article": "https://it.wikipedia.org/wiki/Casa_del_boia_(Genova)"
    },
    {
        "item": "http://www.wikidata.org/entity/Q112081890",
        "name": "Casa del Soldato",
        "coord": "Point(8.981024238 44.39423993)",
        "lat": "44.394239930556",
        "lon": "8.9810242388889",
        "article": "https://it.wikipedia.org/wiki/Casa_del_Soldato_(Genova)"
    },
    {
        "item": "http://www.wikidata.org/entity/Q3661263",
        "name": "Casa dello Studente",
        "coord": "Point(8.96416667 44.40430556)",
        "lat": "44.40430556",
        "lon": "8.96416667",
        "article": "https://it.wikipedia.org/wiki/Casa_dello_Studente_(Genova)"
    },
    {
        "item": "http://www.wikidata.org/entity/Q102036560",
        "name": "Casa di Niccolò Paganini",
        "coord": "Point(8.933208 44.403838)",
        "lat": "44.403838",
        "lon": "8.933208",
        "article": "https://it.wikipedia.org/wiki/Casa_di_Niccol%C3%B2_Paganini"
    },
    {
        "item": "http://www.wikidata.org/entity/Q1048759",
        "name": "Castelletto",
        "coord": "Point(8.93305556 44.41361111)",
        "lat": "44.41361111",
        "lon": "8.93305556",
        "article": "https://it.wikipedia.org/wiki/Castelletto_(Genova)"
    },
    {
        "item": "http://www.wikidata.org/entity/Q3662330",
        "name": "Castello Mackenzie",
        "coord": "Point(8.94722222 44.41527778)",
        "lat": "44.41527778",
        "lon": "8.94722222",
        "article": "https://it.wikipedia.org/wiki/Castello_Mackenzie"
    },
    {
        "item": "http://www.wikidata.org/entity/Q3662361",
        "name": "Castello Raggio",
        "coord": "Point(8.86017 44.41538)",
        "lat": "44.41538",
        "lon": "8.86017",
        "article": "https://it.wikipedia.org/wiki/Castello_Raggio"
    },
    {
        "item": "http://www.wikidata.org/entity/Q103487481",
        "name": "Castello Türcke",
        "coord": "Point(8.977392269 44.390402314)",
        "lat": "44.390402314787",
        "lon": "8.9773922690992",
        "article": "https://it.wikipedia.org/wiki/Castello_T%C3%BCrcke"
    },
    {
        "item": "http://www.wikidata.org/entity/Q86675244",
        "name": "Castello di Bolzaneto",
        "coord": "Point(8.90193 44.464)",
        "lat": "44.464",
        "lon": "8.90193",
        "article": "https://it.wikipedia.org/wiki/Castello_di_Bolzaneto"
    },
    {
        "item": "http://www.wikidata.org/entity/Q118465907",
        "name": "Centro sportivo Pio XII - Gianluca Signorini",
        "coord": "Point(8.82379 44.42839)",
        "lat": "44.42839",
        "lon": "8.82379",
        "article": "https://it.wikipedia.org/wiki/Centro_sportivo_Pio_XII_-_Gianluca_Signorini"
    },
    {
        "item": "http://www.wikidata.org/entity/Q48832045",
        "name": "Cesino",
        "coord": "Point(8.90281 44.50646)",
        "lat": "44.50646",
        "lon": "8.90281",
        "article": "https://it.wikipedia.org/wiki/Cesino"
    },
    {
        "item": "http://www.wikidata.org/entity/Q23310020",
        "name": "Chiaravagna",
        "coord": "Point(8.84951 44.41842)",
        "lat": "44.41842",
        "lon": "8.84951",
        "article": "https://it.wikipedia.org/wiki/Chiaravagna"
    },
    {
        "item": "http://www.wikidata.org/entity/Q37155757",
        "name": "Cinema Sivori",
        "coord": "Point(8.9346713 44.409893)",
        "lat": "44.409893",
        "lon": "8.9346713",
        "article": "https://it.wikipedia.org/wiki/Cinema_Sivori"
    },
    {
        "item": "http://www.wikidata.org/entity/Q1118778",
        "name": "Civico museo biblioteca dell'Attore",
        "coord": "Point(8.941868 44.407124)",
        "lat": "44.407124",
        "lon": "8.941868",
        "article": "https://it.wikipedia.org/wiki/Civico_museo_biblioteca_dell%27attore"
    },
    {
        "item": "http://www.wikidata.org/entity/Q20008213",
        "name": "Colle degli Ometti",
        "coord": "Point(9.013296 44.392741)",
        "lat": "44.392741",
        "lon": "9.013296",
        "article": "https://it.wikipedia.org/wiki/Colle_degli_Ometti"
    },
    {
        "item": "http://www.wikidata.org/entity/Q13484749",
        "name": "Colonna infame",
        "coord": "Point(8.9281928 44.4125135)",
        "lat": "44.4125135",
        "lon": "8.9281928",
        "article": "https://it.wikipedia.org/wiki/Colonna_infame_(Genova)"
    },
    {
        "item": "http://www.wikidata.org/entity/Q3684609",
        "name": "Commenda di San Giovanni di Pré",
        "coord": "Point(8.92219 44.41578)",
        "lat": "44.41578",
        "lon": "8.92219",
        "article": "https://it.wikipedia.org/wiki/Commenda_di_San_Giovanni_di_Pr%C3%A9"
    },
    {
        "item": "http://www.wikidata.org/entity/Q642258",
        "name": "Conservatorio Niccolò Paganini",
        "coord": "Point(8.960555555 44.4)",
        "lat": "44.4",
        "lon": "8.9605555555556",
        "article": "https://it.wikipedia.org/wiki/Conservatorio_Niccol%C3%B2_Paganini"
    },
    {
        "item": "http://www.wikidata.org/entity/Q834930",
        "name": "Cornigliano",
        "coord": "Point(8.87055556 44.41583333)",
        "lat": "44.41583333",
        "lon": "8.87055556",
        "article": "https://it.wikipedia.org/wiki/Cornigliano"
    },
    {
        "item": "http://www.wikidata.org/entity/Q3693986",
        "name": "Coronata",
        "coord": "Point(8.87805556 44.42694444)",
        "lat": "44.42694444",
        "lon": "8.87805556",
        "article": "https://it.wikipedia.org/wiki/Coronata_(Genova)"
    },
    {
        "item": "http://www.wikidata.org/entity/Q3694678",
        "name": "Corte Lambruschini",
        "coord": "Point(8.948139 44.404523)",
        "lat": "44.404523",
        "lon": "8.948139",
        "article": "https://it.wikipedia.org/wiki/Corte_Lambruschini"
    },
    {
        "item": "http://www.wikidata.org/entity/Q28668631",
        "name": "Deposito locomotive di Genova Rivarolo",
        "coord": "Point(8.89099 44.43158)",
        "lat": "44.43158",
        "lon": "8.89099",
        "article": "https://it.wikipedia.org/wiki/Deposito_locomotive_di_Genova_Rivarolo"
    },
    {
        "item": "http://www.wikidata.org/entity/Q1344478",
        "name": "Ente ospedaliero Ospedali Galliera",
        "coord": "Point(8.941192 44.399878)",
        "lat": "44.399878",
        "lon": "8.941192",
        "article": "https://it.wikipedia.org/wiki/Ente_ospedaliero_Ospedali_Galliera"
    },
    {
        "item": "http://www.wikidata.org/entity/Q3732712",
        "name": "Erzelli",
        "coord": "Point(8.86388889 44.42444444)",
        "lat": "44.42444444",
        "lon": "8.86388889",
        "article": "https://it.wikipedia.org/wiki/Erzelli"
    },
    {
        "item": "http://www.wikidata.org/entity/Q28776355",
        "name": "Fiera di Genova",
        "coord": "Point(8.9398133 44.3961066)",
        "lat": "44.3961066",
        "lon": "8.9398133",
        "article": "https://it.wikipedia.org/wiki/Fiera_di_Genova"
    },
    {
        "item": "http://www.wikidata.org/entity/Q3745920",
        "name": "Fiorino",
        "coord": "Point(8.70722222 44.46138889)",
        "lat": "44.46138889",
        "lon": "8.70722222",
        "article": "https://it.wikipedia.org/wiki/Fiorino_(Voltri)"
    },
    {
        "item": "http://www.wikidata.org/entity/Q1434980",
        "name": "Foce",
        "coord": "Point(8.94666667 44.3975)",
        "lat": "44.3975",
        "lon": "8.94666667",
        "article": "https://it.wikipedia.org/wiki/Foce_(Genova)"
    },
    {
        "item": "http://www.wikidata.org/entity/Q3982309",
        "name": "Fondazione Luzzati – Teatro della Tosse",
        "coord": "Point(8.931611 44.404722)",
        "lat": "44.404722",
        "lon": "8.931611",
        "article": "https://it.wikipedia.org/wiki/Fondazione_Luzzati_-_Teatro_della_Tosse"
    },
    {
        "item": "http://www.wikidata.org/entity/Q3748517",
        "name": "Forte Begato",
        "coord": "Point(8.92032 44.43786)",
        "lat": "44.43786",
        "lon": "8.92032",
        "article": "https://it.wikipedia.org/wiki/Forte_Begato"
    },
    {
        "item": "http://www.wikidata.org/entity/Q82265654",
        "name": "Forte Belvedere",
        "coord": "Point(8.89092 44.4184)",
        "lat": "44.4184",
        "lon": "8.89092",
        "article": "https://it.wikipedia.org/wiki/Forte_Belvedere_(Genova)"
    },
    {
        "item": "http://www.wikidata.org/entity/Q7119441",
        "name": "Forte Castellaccio",
        "coord": "Point(8.93376 44.42886)",
        "lat": "44.42886",
        "lon": "8.93376",
        "article": "https://it.wikipedia.org/wiki/Forte_Castellaccio"
    },
    {
        "item": "http://www.wikidata.org/entity/Q3748544",
        "name": "Forte Crocetta",
        "coord": "Point(8.89643 44.42409)",
        "lat": "44.42409",
        "lon": "8.89643",
        "article": "https://it.wikipedia.org/wiki/Forte_Crocetta"
    },
    {
        "item": "http://www.wikidata.org/entity/Q3748547",
        "name": "Forte Diamante",
        "coord": "Point(8.939502886 44.461187556)",
        "lat": "44.461187556528",
        "lon": "8.9395028861081",
        "article": "https://it.wikipedia.org/wiki/Forte_Diamante"
    },
    {
        "item": "http://www.wikidata.org/entity/Q3748555",
        "name": "Forte Fratello Maggiore",
        "coord": "Point(8.93629722 44.45656944)",
        "lat": "44.45656944",
        "lon": "8.93629722",
        "article": "https://it.wikipedia.org/wiki/Forte_Fratello_Maggiore"
    },
    {
        "item": "http://www.wikidata.org/entity/Q3748557",
        "name": "Forte Fratello Minore",
        "coord": "Point(8.93286944 44.45681667)",
        "lat": "44.45681667",
        "lon": "8.93286944",
        "article": "https://it.wikipedia.org/wiki/Forte_Fratello_Minore"
    },
    {
        "item": "http://www.wikidata.org/entity/Q102426947",
        "name": "Forte Monte Guano",
        "coord": "Point(8.867888888 44.429388888)",
        "lat": "44.429388888889",
        "lon": "8.8678888888889",
        "article": "https://it.wikipedia.org/wiki/Forte_Monte_Guano"
    },
    {
        "item": "http://www.wikidata.org/entity/Q3748584",
        "name": "Forte Monteratti",
        "coord": "Point(8.99818 44.4343)",
        "lat": "44.4343",
        "lon": "8.99818",
        "article": "https://it.wikipedia.org/wiki/Forte_Monteratti"
    },
    {
        "item": "http://www.wikidata.org/entity/Q3748601",
        "name": "Forte Puin",
        "coord": "Point(8.93775 44.44669)",
        "lat": "44.44669",
        "lon": "8.93775",
        "article": "https://it.wikipedia.org/wiki/Forte_Puin"
    },
    {
        "item": "http://www.wikidata.org/entity/Q3748602",
        "name": "Forte Quezzi",
        "coord": "Point(8.96373 44.42659)",
        "lat": "44.42659",
        "lon": "8.96373",
        "article": "https://it.wikipedia.org/wiki/Forte_Quezzi"
    },
    {
        "item": "http://www.wikidata.org/entity/Q3748603",
        "name": "Forte Richelieu",
        "coord": "Point(8.99154 44.42127)",
        "lat": "44.42127",
        "lon": "8.99154",
        "article": "https://it.wikipedia.org/wiki/Forte_Richelieu"
    },
    {
        "item": "http://www.wikidata.org/entity/Q110279116",
        "name": "Forte San Giorgio",
        "coord": "Point(8.921237271 44.419461907)",
        "lat": "44.419461907644",
        "lon": "8.9212372713767",
        "article": "https://it.wikipedia.org/wiki/Forte_San_Giorgio_(Genova)"
    },
    {
        "item": "http://www.wikidata.org/entity/Q3748609",
        "name": "Forte San Giuliano",
        "coord": "Point(8.95965 44.39312)",
        "lat": "44.39312",
        "lon": "8.95965",
        "article": "https://it.wikipedia.org/wiki/Forte_San_Giuliano"
    },
    {
        "item": "http://www.wikidata.org/entity/Q16556920",
        "name": "Forte San Martino",
        "coord": "Point(8.96927 44.40352)",
        "lat": "44.40352",
        "lon": "8.96927",
        "article": "https://it.wikipedia.org/wiki/Forte_San_Martino"
    },
    {
        "item": "http://www.wikidata.org/entity/Q3748630",
        "name": "Forte Santa Tecla",
        "coord": "Point(8.97711 44.4128)",
        "lat": "44.4128",
        "lon": "8.97711",
        "article": "https://it.wikipedia.org/wiki/Forte_Santa_Tecla_(Genova)"
    },
    {
        "item": "http://www.wikidata.org/entity/Q661321",
        "name": "Forte Sperone",
        "coord": "Point(8.930555555 44.440555555)",
        "lat": "44.440555555556",
        "lon": "8.9305555555556",
        "article": "https://it.wikipedia.org/wiki/Forte_Sperone"
    },
    {
        "item": "http://www.wikidata.org/entity/Q3748648",
        "name": "Forte Tenaglia",
        "coord": "Point(8.89912 44.4243)",
        "lat": "44.4243",
        "lon": "8.89912",
        "article": "https://it.wikipedia.org/wiki/Forte_Tenaglia"
    },
    {
        "item": "http://www.wikidata.org/entity/Q1916826",
        "name": "Galata − Museo del mare",
        "coord": "Point(8.92341667 44.41422222)",
        "lat": "44.41422222",
        "lon": "8.92341667",
        "article": "https://it.wikipedia.org/wiki/Galata_%E2%88%92_Museo_del_mare"
    },
    {
        "item": "http://www.wikidata.org/entity/Q3757687",
        "name": "Galleria Mazzini",
        "coord": "Point(8.936203 44.408819)",
        "lat": "44.408819",
        "lon": "8.936203",
        "article": "https://it.wikipedia.org/wiki/Galleria_Mazzini"
    },
    {
        "item": "http://www.wikidata.org/entity/Q3757770",
        "name": "Gallerie Nazionali di Palazzo Spinola",
        "coord": "Point(8.930501 44.410736)",
        "lat": "44.410736",
        "lon": "8.930501",
        "article": "https://it.wikipedia.org/wiki/Galleria_nazionale_di_palazzo_Spinola"
    },
    {
        "item": "http://www.wikidata.org/entity/Q1449",
        "name": "Genova",
        "coord": "Point(8.933983333 44.407186111)",
        "lat": "44.407186111111",
        "lon": "8.9339833333333",
        "article": "https://it.wikipedia.org/wiki/Genova"
    },
    {
        "item": "http://www.wikidata.org/entity/Q1054097",
        "name": "Giardino botanico Clelia Durazzo Grimaldi",
        "coord": "Point(8.81694444 44.43055556)",
        "lat": "44.43055556",
        "lon": "8.81694444",
        "article": "https://it.wikipedia.org/wiki/Giardino_botanico_Clelia_Durazzo_Grimaldi"
    },
    {
        "item": "http://www.wikidata.org/entity/Q3774994",
        "name": "Granarolo",
        "coord": "Point(8.9099896 44.4266238)",
        "lat": "44.4266238",
        "lon": "8.9099896",
        "article": "https://it.wikipedia.org/wiki/Granarolo_(Genova)"
    },
    {
        "item": "http://www.wikidata.org/entity/Q3775062",
        "name": "Grand Hotel Miramare",
        "coord": "Point(8.91713 44.41708)",
        "lat": "44.41708",
        "lon": "8.91713",
        "article": "https://it.wikipedia.org/wiki/Grand_Hotel_Miramare"
    },
    {
        "item": "http://www.wikidata.org/entity/Q60837351",
        "name": "Hotel Marinella",
        "coord": "Point(9.04102 44.38076)",
        "lat": "44.38076",
        "lon": "9.04102",
        "article": "https://it.wikipedia.org/wiki/Hotel_Marinella"
    },
    {
        "item": "http://www.wikidata.org/entity/Q204441",
        "name": "Istituto Giannina Gaslini",
        "coord": "Point(8.988007 44.392843)",
        "lat": "44.392843",
        "lon": "8.988007",
        "article": "https://it.wikipedia.org/wiki/Istituto_Giannina_Gaslini"
    },
    {
        "item": "http://www.wikidata.org/entity/Q972864",
        "name": "Lagaccio",
        "coord": "Point(8.91777778 44.42111111)",
        "lat": "44.42111111",
        "lon": "8.91777778",
        "article": "https://it.wikipedia.org/wiki/Lagaccio"
    },
    {
        "item": "http://www.wikidata.org/entity/Q776666",
        "name": "Lanterna di Genova",
        "coord": "Point(8.904636 44.40454)",
        "lat": "44.40454",
        "lon": "8.904636",
        "article": "https://it.wikipedia.org/wiki/Lanterna_di_Genova"
    },
    {
        "item": "http://www.wikidata.org/entity/Q16572448",
        "name": "Liceo artistico statale Klee-Barabino",
        "coord": "Point(8.942674 44.4082975)",
        "lat": "44.4082975",
        "lon": "8.942674",
        "article": "https://it.wikipedia.org/wiki/Liceo_artistico_statale_Klee_Barabino"
    },
    {
        "item": "http://www.wikidata.org/entity/Q3831904",
        "name": "Liceo classico e linguistico Cristoforo Colombo",
        "coord": "Point(8.92798 44.41497)",
        "lat": "44.41497",
        "lon": "8.92798",
        "article": "https://it.wikipedia.org/wiki/Liceo_classico_Cristoforo_Colombo"
    },
    {
        "item": "http://www.wikidata.org/entity/Q3831939",
        "name": "Liceo ginnasio Andrea D'Oria",
        "coord": "Point(8.943338 44.401566)",
        "lat": "44.401566",
        "lon": "8.943338",
        "article": "https://it.wikipedia.org/wiki/Liceo_ginnasio_Andrea_D%27Oria"
    },
    {
        "item": "http://www.wikidata.org/entity/Q3257899",
        "name": "Loggia dei mercanti",
        "coord": "Point(8.93015 44.40939)",
        "lat": "44.40939",
        "lon": "8.93015",
        "article": "https://it.wikipedia.org/wiki/Loggia_della_Mercanzia_(Genova)"
    },
    {
        "item": "http://www.wikidata.org/entity/Q3831967",
        "name": "Ls G.D.Cassini -",
        "coord": "Point(8.94221389 44.40812778)",
        "lat": "44.40812778",
        "lon": "8.94221389",
        "article": "https://it.wikipedia.org/wiki/Liceo_scientifico_Gian_Domenico_Cassini"
    },
    {
        "item": "http://www.wikidata.org/entity/Q3842272",
        "name": "Maddalena",
        "coord": "Point(8.93055556 44.41111111)",
        "lat": "44.41111111",
        "lon": "8.93055556",
        "article": "https://it.wikipedia.org/wiki/Maddalena_(Genova)"
    },
    {
        "item": "http://www.wikidata.org/entity/Q3843084",
        "name": "Magazzini del Cotone",
        "coord": "Point(8.92130077 44.40826304)",
        "lat": "44.40826304",
        "lon": "8.92130077",
        "article": "https://it.wikipedia.org/wiki/Magazzini_del_Cotone"
    },
    {
        "item": "http://www.wikidata.org/entity/Q30880320",
        "name": "Magistrato di Misericordia di Genova",
        "coord": "Point(8.931497 44.406356)",
        "lat": "44.406356",
        "lon": "8.931497",
        "article": "https://it.wikipedia.org/wiki/Magistrato_di_Misericordia_di_Genova"
    },
    {
        "item": "http://www.wikidata.org/entity/Q946486",
        "name": "Marassi",
        "coord": "Point(8.95055556 44.41694444)",
        "lat": "44.41694444",
        "lon": "8.95055556",
        "article": "https://it.wikipedia.org/wiki/Marassi"
    },
    {
        "item": "http://www.wikidata.org/entity/Q3848115",
        "name": "Marina di Sestri Ponente",
        "coord": "Point(8.84305556 44.41555556)",
        "lat": "44.41555556",
        "lon": "8.84305556",
        "article": "https://it.wikipedia.org/wiki/Marina_di_Sestri_Ponente"
    },
    {
        "item": "http://www.wikidata.org/entity/Q2219285",
        "name": "Matitone",
        "coord": "Point(8.90663 44.411372)",
        "lat": "44.411372",
        "lon": "8.90663",
        "article": "https://it.wikipedia.org/wiki/Matitone"
    },
    {
        "item": "http://www.wikidata.org/entity/Q3319451",
        "name": "Molassana",
        "coord": "Point(8.98055556 44.45416667)",
        "lat": "44.45416667",
        "lon": "8.98055556",
        "article": "https://it.wikipedia.org/wiki/Molassana"
    },
    {
        "item": "http://www.wikidata.org/entity/Q3860284",
        "name": "Molo",
        "coord": "Point(8.92972 44.4067)",
        "lat": "44.4067",
        "lon": "8.92972",
        "article": "https://it.wikipedia.org/wiki/Molo_(Genova)"
    },
    {
        "item": "http://www.wikidata.org/entity/Q1952273",
        "name": "Multedo",
        "coord": "Point(8.82777778 44.42777778)",
        "lat": "44.42777778",
        "lon": "8.82777778",
        "article": "https://it.wikipedia.org/wiki/Multedo"
    },
    {
        "item": "http://www.wikidata.org/entity/Q3867449",
        "name": "Murta",
        "coord": "Point(8.88944444 44.46166667)",
        "lat": "44.46166667",
        "lon": "8.88944444",
        "article": "https://it.wikipedia.org/wiki/Murta"
    },
    {
        "item": "http://www.wikidata.org/entity/Q3867513",
        "name": "Museattivo Claudio Costa",
        "coord": "Point(8.991805555 44.396194444)",
        "lat": "44.396194444444",
        "lon": "8.9918055555556",
        "article": "https://it.wikipedia.org/wiki/Museattivo_Claudio_Costa"
    },
    {
        "item": "http://www.wikidata.org/entity/Q3867551",
        "name": "Musei di Strada Nuova",
        "coord": "Point(8.932135502 44.411277257)",
        "lat": "44.411277257955",
        "lon": "8.9321355023553",
        "article": "https://it.wikipedia.org/wiki/Musei_di_Strada_Nuova"
    },
    {
        "item": "http://www.wikidata.org/entity/Q20008344",
        "name": "Museo Emanuele Luzzati di Genova",
        "coord": "Point(8.924865 44.407982)",
        "lat": "44.407982",
        "lon": "8.924865",
        "article": "https://it.wikipedia.org/wiki/Museo_Emanuele_Luzzati_di_Genova"
    },
    {
        "item": "http://www.wikidata.org/entity/Q3867875",
        "name": "Museo d'arte orientale Edoardo Chiossone",
        "coord": "Point(8.93624 44.41121)",
        "lat": "44.41121",
        "lon": "8.93624",
        "article": "https://it.wikipedia.org/wiki/Museo_d%27arte_orientale_Edoardo_Chiossone"
    },
    {
        "item": "http://www.wikidata.org/entity/Q3867895",
        "name": "Museo dei Cappuccini di Genova",
        "coord": "Point(8.9391 44.407901)",
        "lat": "44.407901",
        "lon": "8.9391",
        "article": "https://it.wikipedia.org/wiki/Museo_dei_Cappuccini"
    },
    {
        "item": "http://www.wikidata.org/entity/Q3867926",
        "name": "Museo del Risorgimento e Casa di Giuseppe Mazzini",
        "coord": "Point(8.92942 44.41248)",
        "lat": "44.41248",
        "lon": "8.92942",
        "article": "https://it.wikipedia.org/wiki/Museo_del_Risorgimento_e_istituto_mazziniano"
    },
    {
        "item": "http://www.wikidata.org/entity/Q18785499",
        "name": "Museo del jazz di Genova",
        "coord": "Point(8.9322588 44.407406)",
        "lat": "44.407406",
        "lon": "8.9322588",
        "article": "https://it.wikipedia.org/wiki/Museo_del_jazz_di_Genova"
    },
    {
        "item": "http://www.wikidata.org/entity/Q3867980",
        "name": "Museo del tesoro della cattedrale di San Lorenzo",
        "coord": "Point(8.931475693 44.407581595)",
        "lat": "44.407581595642",
        "lon": "8.9314756933218",
        "article": "https://it.wikipedia.org/wiki/Museo_del_tesoro_della_cattedrale_di_San_Lorenzo"
    },
    {
        "item": "http://www.wikidata.org/entity/Q42810756",
        "name": "Museo dell'Accademia Ligustica di Belle Arti",
        "coord": "Point(8.934643 44.40759)",
        "lat": "44.40759",
        "lon": "8.934643",
        "article": "https://it.wikipedia.org/wiki/Museo_dell%27Accademia_Ligustica_di_Belle_Arti"
    },
    {
        "item": "http://www.wikidata.org/entity/Q3868006",
        "name": "Museo dell'acqua e del gas",
        "coord": "Point(8.960864 44.434242)",
        "lat": "44.434242",
        "lon": "8.960864",
        "article": "https://it.wikipedia.org/wiki/Museo_dell%27acqua_e_del_gas"
    },
    {
        "item": "http://www.wikidata.org/entity/Q3868112",
        "name": "Museo della storia del Genoa",
        "coord": "Point(8.9272437 44.4085135)",
        "lat": "44.4085135",
        "lon": "8.9272437",
        "article": "https://it.wikipedia.org/wiki/Genoa_Museum_and_Store"
    },
    {
        "item": "http://www.wikidata.org/entity/Q2644208",
        "name": "Museo di archeologia ligure",
        "coord": "Point(8.817397 44.429375)",
        "lat": "44.42949",
        "lon": "8.817317",
        "article": "https://it.wikipedia.org/wiki/Museo_di_archeologia_ligure"
    },
    {
        "item": "http://www.wikidata.org/entity/Q2644208",
        "name": "Museo di archeologia ligure",
        "coord": "Point(8.817317 44.42949)",
        "lat": "44.42949",
        "lon": "8.817317",
        "article": "https://it.wikipedia.org/wiki/Museo_di_archeologia_ligure"
    },
    {
        "item": "http://www.wikidata.org/entity/Q2644208",
        "name": "Museo di archeologia ligure",
        "coord": "Point(8.817397 44.429375)",
        "lat": "44.429375",
        "lon": "8.817397",
        "article": "https://it.wikipedia.org/wiki/Museo_di_archeologia_ligure"
    },
    {
        "item": "http://www.wikidata.org/entity/Q2644208",
        "name": "Museo di archeologia ligure",
        "coord": "Point(8.817317 44.42949)",
        "lat": "44.429375",
        "lon": "8.817397",
        "article": "https://it.wikipedia.org/wiki/Museo_di_archeologia_ligure"
    },
    {
        "item": "http://www.wikidata.org/entity/Q3328400",
        "name": "Museo di storia naturale Giacomo Doria",
        "coord": "Point(8.942691 44.402493)",
        "lat": "44.402493",
        "lon": "8.942691",
        "article": "https://it.wikipedia.org/wiki/Museo_di_storia_naturale_Giacomo_Doria"
    },
    {
        "item": "http://www.wikidata.org/entity/Q3868267",
        "name": "Museo diocesano (Genova)",
        "coord": "Point(8.931822 44.407883)",
        "lat": "44.407883",
        "lon": "8.931822",
        "article": "https://it.wikipedia.org/wiki/Museo_diocesano_(Genova)"
    },
    {
        "item": "http://www.wikidata.org/entity/Q18670430",
        "name": "Museo ebraico di Genova",
        "coord": "Point(8.941828 44.412502)",
        "lat": "44.412502",
        "lon": "8.941828",
        "article": "https://it.wikipedia.org/wiki/Museo_ebraico_di_Genova"
    },
    {
        "item": "http://www.wikidata.org/entity/Q3868414",
        "name": "Museo navale di Pegli",
        "coord": "Point(8.815259 44.42848)",
        "lat": "44.42848",
        "lon": "8.815259",
        "article": "https://it.wikipedia.org/wiki/Museo_navale_di_Pegli"
    },
    {
        "item": "http://www.wikidata.org/entity/Q3868422",
        "name": "Museo nazionale dell'Antartide \"Felice Ippolito\"",
        "coord": "Point(8.927156 44.408077)",
        "lat": "44.408077",
        "lon": "8.927156",
        "article": "https://it.wikipedia.org/wiki/Museo_nazionale_dell%27Antartide_Felice_Ippolito"
    },
    {
        "item": "http://www.wikidata.org/entity/Q3868462",
        "name": "Museo speleologico del Monte Gazzo",
        "coord": "Point(8.84769 44.4422)",
        "lat": "44.4422",
        "lon": "8.84769",
        "article": "https://it.wikipedia.org/wiki/Museo_speleologico_del_Monte_Gazzo"
    },
    {
        "item": "http://www.wikidata.org/entity/Q627950",
        "name": "Nasche",
        "coord": "Point(9.0023389 44.419228)",
        "lat": "44.419228",
        "lon": "9.0023389",
        "article": "https://it.wikipedia.org/wiki/Nasche"
    },
    {
        "item": "http://www.wikidata.org/entity/Q3874721",
        "name": "Neptune",
        "coord": "Point(8.927055555 44.411)",
        "lat": "44.411",
        "lon": "8.9270555555556",
        "article": "https://it.wikipedia.org/wiki/Neptune_(vascello)"
    },
    {
        "item": "http://www.wikidata.org/entity/Q963477",
        "name": "Nervi",
        "coord": "Point(9.033333333 44.383333333)",
        "lat": "44.383333333333",
        "lon": "9.0333333333333",
        "article": "https://it.wikipedia.org/wiki/Nervi_(Genova)"
    },
    {
        "item": "http://www.wikidata.org/entity/Q3879857",
        "name": "Nuovo Lido",
        "coord": "Point(8.967224 44.390721)",
        "lat": "44.390721",
        "lon": "8.967224",
        "article": "https://it.wikipedia.org/wiki/Nuovo_Lido"
    },
    {
        "item": "http://www.wikidata.org/entity/Q2299021",
        "name": "Opera Carlo Felice Genova",
        "coord": "Point(8.935129286 44.407905274)",
        "lat": "44.407905274",
        "lon": "8.9351292861",
        "article": "https://it.wikipedia.org/wiki/Teatro_Carlo_Felice"
    },
    {
        "item": "http://www.wikidata.org/entity/Q1737874",
        "name": "Oregina",
        "coord": "Point(8.925 44.42305556)",
        "lat": "44.42305556",
        "lon": "8.925",
        "article": "https://it.wikipedia.org/wiki/Oregina"
    },
    {
        "item": "http://www.wikidata.org/entity/Q7105065",
        "name": "Orto botanico dell'Università di Genova",
        "coord": "Point(8.927933 44.416374)",
        "lat": "44.416374",
        "lon": "8.927933",
        "article": "https://it.wikipedia.org/wiki/Orto_botanico_dell%27Universit%C3%A0_di_Genova"
    },
    {
        "item": "http://www.wikidata.org/entity/Q84308446",
        "name": "Ospedale Evangelico Internazionale",
        "coord": "Point(8.943005 44.414277)",
        "lat": "44.414277",
        "lon": "8.943005",
        "article": "https://it.wikipedia.org/wiki/Ospedale_Evangelico_Internazionale"
    },
    {
        "item": "http://www.wikidata.org/entity/Q16585735",
        "name": "Padiglione B",
        "coord": "Point(8.93972222 44.39583333)",
        "lat": "44.39583333",
        "lon": "8.93972222",
        "article": "https://it.wikipedia.org/wiki/Padiglione_B_(Genova)"
    },
    {
        "item": "http://www.wikidata.org/entity/Q3889116",
        "name": "PalaFigoi",
        "coord": "Point(8.87701 44.43955)",
        "lat": "44.43955",
        "lon": "8.87701",
        "article": "https://it.wikipedia.org/wiki/PalaFigoi"
    },
    {
        "item": "http://www.wikidata.org/entity/Q3744612",
        "name": "Palasport di Genova",
        "coord": "Point(8.941079 44.395508)",
        "lat": "44.395508",
        "lon": "8.941079",
        "article": "https://it.wikipedia.org/wiki/Palasport_di_Genova"
    },
    {
        "item": "http://www.wikidata.org/entity/Q17637911",
        "name": "Palazzetto Criminale",
        "coord": "Point(8.93211891 44.407891299)",
        "lat": "44.407891299",
        "lon": "8.9321189106",
        "article": "https://it.wikipedia.org/wiki/Palazzetto_Criminale"
    },
    {
        "item": "http://www.wikidata.org/entity/Q3889500",
        "name": "Palazzo Adorno",
        "coord": "Point(8.92921 44.4091)",
        "lat": "44.4091",
        "lon": "8.92921",
        "article": "https://it.wikipedia.org/wiki/Palazzo_Adorno"
    },
    {
        "item": "http://www.wikidata.org/entity/Q3889505",
        "name": "Palazzo Agostino Calvi Saluzzo",
        "coord": "Point(8.93096111 44.40731667)",
        "lat": "44.40731667",
        "lon": "8.93096111",
        "article": "https://it.wikipedia.org/wiki/Palazzo_Agostino_Calvi_Saluzzo"
    },
    {
        "item": "http://www.wikidata.org/entity/Q3889506",
        "name": "Palazzo Agostino De Franchi",
        "coord": "Point(8.93103611 44.41061944)",
        "lat": "44.41061944",
        "lon": "8.93103611",
        "article": "https://it.wikipedia.org/wiki/Palazzo_Agostino_De_Franchi"
    },
    {
        "item": "http://www.wikidata.org/entity/Q3889507",
        "name": "Palazzo Agostino Doria",
        "coord": "Point(8.93069722 44.40945556)",
        "lat": "44.40945556",
        "lon": "8.93069722",
        "article": "https://it.wikipedia.org/wiki/Palazzo_Agostino_Doria"
    },
    {
        "item": "http://www.wikidata.org/entity/Q3889508",
        "name": "Palazzo Agostino Spinola",
        "coord": "Point(8.933678428 44.408003873)",
        "lat": "44.408003873",
        "lon": "8.9336784282",
        "article": "https://it.wikipedia.org/wiki/Palazzo_Agostino_Spinola"
    },
    {
        "item": "http://www.wikidata.org/entity/Q3889511",
        "name": "Palazzo Agostino e Benedetto Viale",
        "coord": "Point(8.93194 44.4066)",
        "lat": "44.4066",
        "lon": "8.93194",
        "article": "https://it.wikipedia.org/wiki/Palazzo_Agostino_e_Benedetto_Viale"
    },
    {
        "item": "http://www.wikidata.org/entity/Q3889512",
        "name": "Palazzo Agostino e Giacomo Salvago",
        "coord": "Point(8.93071 44.4062)",
        "lat": "44.4062",
        "lon": "8.93071",
        "article": "https://it.wikipedia.org/wiki/Palazzo_Agostino_e_Giacomo_Salvago"
    },
    {
        "item": "http://www.wikidata.org/entity/Q3890241",
        "name": "Palazzo Alessandro Giustiniani",
        "coord": "Point(8.93011667 44.40593333)",
        "lat": "44.40593333",
        "lon": "8.93011667",
        "article": "https://it.wikipedia.org/wiki/Palazzo_Alessandro_Giustiniani"
    },
    {
        "item": "http://www.wikidata.org/entity/Q3889530",
        "name": "Palazzo Ambrogio Di Negro",
        "coord": "Point(8.929846 44.409462)",
        "lat": "44.409462",
        "lon": "8.929846",
        "article": "https://it.wikipedia.org/wiki/Palazzo_Ambrogio_Di_Negro"
    },
    {
        "item": "http://www.wikidata.org/entity/Q3361280",
        "name": "Palazzo Angelo Giovanni Spinola",
        "coord": "Point(8.9337 44.411)",
        "lat": "44.411",
        "lon": "8.9337",
        "article": "https://it.wikipedia.org/wiki/Palazzo_Angelo_Giovanni_Spinola"
    },
    {
        "item": "http://www.wikidata.org/entity/Q3889541",
        "name": "Palazzo Antonio Doria Invrea",
        "coord": "Point(8.92829 44.4124)",
        "lat": "44.4124",
        "lon": "8.92829",
        "article": "https://it.wikipedia.org/wiki/Palazzo_Antonio_Doria_Invrea"
    },
    {
        "item": "http://www.wikidata.org/entity/Q3889542",
        "name": "Palazzo Antonio Sauli",
        "coord": "Point(8.92978 44.4072)",
        "lat": "44.4072",
        "lon": "8.92978",
        "article": "https://it.wikipedia.org/wiki/Palazzo_Antonio_Sauli"
    },
    {
        "item": "http://www.wikidata.org/entity/Q3889576",
        "name": "Palazzo Balbi-Senarega",
        "coord": "Point(8.9273 44.41453)",
        "lat": "44.414565",
        "lon": "8.926974",
        "article": "https://it.wikipedia.org/wiki/Palazzo_Balbi-Senarega"
    },
    {
        "item": "http://www.wikidata.org/entity/Q3889576",
        "name": "Palazzo Balbi-Senarega",
        "coord": "Point(8.9273 44.41453)",
        "lat": "44.41453",
        "lon": "8.9273",
        "article": "https://it.wikipedia.org/wiki/Palazzo_Balbi-Senarega"
    },
    {
        "item": "http://www.wikidata.org/entity/Q3889577",
        "name": "Palazzo Baldassarre Lomellini",
        "coord": "Point(8.9326 44.4111)",
        "lat": "44.4111",
        "lon": "8.9326",
        "article": "https://it.wikipedia.org/wiki/Palazzo_Baldassarre_Lomellini"
    },
    {
        "item": "http://www.wikidata.org/entity/Q3889612",
        "name": "Palazzo Bartolomeo Invrea",
        "coord": "Point(8.92781 44.4123)",
        "lat": "44.4123",
        "lon": "8.92781",
        "article": "https://it.wikipedia.org/wiki/Palazzo_Bartolomeo_Invrea"
    },
    {
        "item": "http://www.wikidata.org/entity/Q3889615",
        "name": "Palazzo Bartolomeo Lomellini",
        "coord": "Point(8.93017 44.41356)",
        "lat": "44.41356",
        "lon": "8.93017",
        "article": "https://it.wikipedia.org/wiki/Palazzo_Bartolomeo_Lomellini"
    },
    {
        "item": "http://www.wikidata.org/entity/Q3889619",
        "name": "Palazzo Basadonne",
        "coord": "Point(8.92893 44.4073)",
        "lat": "44.4073",
        "lon": "8.92893",
        "article": "https://it.wikipedia.org/wiki/Palazzo_Basadonne"
    },
    {
        "item": "http://www.wikidata.org/entity/Q3889631",
        "name": "Palazzo Belimbau",
        "coord": "Point(8.92817 44.41359)",
        "lat": "44.41359",
        "lon": "8.92817",
        "article": "https://it.wikipedia.org/wiki/Palazzo_Belimbau"
    },
    {
        "item": "http://www.wikidata.org/entity/Q3889637",
        "name": "Palazzo Bendinelli Sauli",
        "coord": "Point(8.9303 44.408)",
        "lat": "44.408",
        "lon": "8.9303",
        "article": "https://it.wikipedia.org/wiki/Palazzo_Bendinelli_Sauli"
    },
    {
        "item": "http://www.wikidata.org/entity/Q3889651",
        "name": "Palazzo Bernardo e Giuseppe De Franchi",
        "coord": "Point(8.93101111 44.41039167)",
        "lat": "44.41039167",
        "lon": "8.93101111",
        "article": "https://it.wikipedia.org/wiki/Palazzo_Bernardo_e_Giuseppe_De_Franchi"
    },
    {
        "item": "http://www.wikidata.org/entity/Q3889722",
        "name": "Palazzo Brancaleone Grillo",
        "coord": "Point(8.93070278 44.40984722)",
        "lat": "44.40984722",
        "lon": "8.93070278",
        "article": "https://it.wikipedia.org/wiki/Palazzo_Brancaleone_Grillo"
    },
    {
        "item": "http://www.wikidata.org/entity/Q3889811",
        "name": "Palazzo Carrega-Cataldi",
        "coord": "Point(8.93405 44.4107)",
        "lat": "44.4107",
        "lon": "8.93405",
        "article": "https://it.wikipedia.org/wiki/Palazzo_Carrega-Cataldi"
    },
    {
        "item": "http://www.wikidata.org/entity/Q3889822",
        "name": "Palazzo Cattaneo Della Volta",
        "coord": "Point(8.92821 44.407)",
        "lat": "44.407",
        "lon": "8.92821",
        "article": "https://it.wikipedia.org/wiki/Palazzo_Cattaneo_Della_Volta"
    },
    {
        "item": "http://www.wikidata.org/entity/Q3889831",
        "name": "Palazzo Centurione-Gavotti",
        "coord": "Point(8.92966 44.4082)",
        "lat": "44.4082",
        "lon": "8.92966",
        "article": "https://it.wikipedia.org/wiki/Palazzo_Centurione-Gavotti"
    },
    {
        "item": "http://www.wikidata.org/entity/Q3889842",
        "name": "Palazzo Chiavari-Calcagno",
        "coord": "Point(8.93242778 44.40929167)",
        "lat": "44.40929167",
        "lon": "8.93242778",
        "article": "https://it.wikipedia.org/wiki/Palazzo_Chiavari-Calcagno"
    },
    {
        "item": "http://www.wikidata.org/entity/Q3889856",
        "name": "Palazzo Cicala-Raggio",
        "coord": "Point(8.93019 44.4087)",
        "lat": "44.4087",
        "lon": "8.93019",
        "article": "https://it.wikipedia.org/wiki/Palazzo_Cicala-Raggio"
    },
    {
        "item": "http://www.wikidata.org/entity/Q3889863",
        "name": "Palazzo Cipriano Pallavicini",
        "coord": "Point(8.92909444 44.41200556)",
        "lat": "44.41200556",
        "lon": "8.92909444",
        "article": "https://it.wikipedia.org/wiki/Palazzo_Cipriano_Pallavicini"
    },
    {
        "item": "http://www.wikidata.org/entity/Q3889869",
        "name": "Palazzo Clemente della Rovere",
        "coord": "Point(8.93611667 44.409925)",
        "lat": "44.409925",
        "lon": "8.93611667",
        "article": "https://it.wikipedia.org/wiki/Palazzo_Clemente_della_Rovere"
    },
    {
        "item": "http://www.wikidata.org/entity/Q3889944",
        "name": "Palazzo Cosma Centurione",
        "coord": "Point(8.9296 44.4126)",
        "lat": "44.4126",
        "lon": "8.9296",
        "article": "https://it.wikipedia.org/wiki/Palazzo_Cosma_Centurione"
    },
    {
        "item": "http://www.wikidata.org/entity/Q3889957",
        "name": "Palazzo Cristoforo Spinola",
        "coord": "Point(8.92915 44.41374)",
        "lat": "44.41374",
        "lon": "8.92915",
        "article": "https://it.wikipedia.org/wiki/Palazzo_Cristoforo_Spinola"
    },
    {
        "item": "http://www.wikidata.org/entity/Q3889984",
        "name": "Palazzo De Franchi-Pittaluga",
        "coord": "Point(8.93058333 44.40746111)",
        "lat": "44.40746111",
        "lon": "8.93058333",
        "article": "https://it.wikipedia.org/wiki/Palazzo_De_Franchi-Pittaluga"
    },
    {
        "item": "http://www.wikidata.org/entity/Q3889991",
        "name": "Palazzo De Mari",
        "coord": "Point(8.934125 44.41000556)",
        "lat": "44.41000556",
        "lon": "8.934125",
        "article": "https://it.wikipedia.org/wiki/Palazzo_De_Mari_(Genova)"
    },
    {
        "item": "http://www.wikidata.org/entity/Q3889992",
        "name": "Palazzo De Marini-Croce",
        "coord": "Point(8.92984 44.4089)",
        "lat": "44.4089",
        "lon": "8.92984",
        "article": "https://it.wikipedia.org/wiki/Palazzo_De_Marini-Croce"
    },
    {
        "item": "http://www.wikidata.org/entity/Q3889993",
        "name": "Palazzo De Marini-Spinola",
        "coord": "Point(8.92998333 44.41326389)",
        "lat": "44.41326389",
        "lon": "8.92998333",
        "article": "https://it.wikipedia.org/wiki/Palazzo_De_Marini-Spinola"
    },
    {
        "item": "http://www.wikidata.org/entity/Q63450203",
        "name": "Palazzo Doge Ferretto",
        "coord": "Point(8.9316437 44.4061505)",
        "lat": "44.4061505",
        "lon": "8.9316437",
        "article": "https://it.wikipedia.org/wiki/Palazzo_Doge_Ferretto"
    },
    {
        "item": "http://www.wikidata.org/entity/Q3890025",
        "name": "Palazzo Domenico Grillo",
        "coord": "Point(8.93099722 44.40948611)",
        "lat": "44.40948611",
        "lon": "8.93099722",
        "article": "https://it.wikipedia.org/wiki/Palazzo_Domenico_Grillo"
    },
    {
        "item": "http://www.wikidata.org/entity/Q53845082",
        "name": "Palazzo Doria De Fornari",
        "coord": "Point(8.933903516 44.408253262)",
        "lat": "44.408253262",
        "lon": "8.9339035166",
        "article": "https://it.wikipedia.org/wiki/Palazzo_Doria_De_Fornari"
    },
    {
        "item": "http://www.wikidata.org/entity/Q3890028",
        "name": "Palazzo Doria-Centurione",
        "coord": "Point(8.93294167 44.4083)",
        "lat": "44.4083",
        "lon": "8.93294167",
        "article": "https://it.wikipedia.org/wiki/Palazzo_Doria-Centurione"
    },
    {
        "item": "http://www.wikidata.org/entity/Q3890029",
        "name": "Palazzo Doria-Danovaro",
        "coord": "Point(8.93301111 44.40826389)",
        "lat": "44.40826389",
        "lon": "8.93301111",
        "article": "https://it.wikipedia.org/wiki/Palazzo_Doria-Danovaro"
    },
    {
        "item": "http://www.wikidata.org/entity/Q3890031",
        "name": "Palazzo Doria-Serra",
        "coord": "Point(8.9329 44.4084)",
        "lat": "44.4084",
        "lon": "8.9329",
        "article": "https://it.wikipedia.org/wiki/Palazzo_Doria-Serra"
    },
    {
        "item": "http://www.wikidata.org/entity/Q3361298",
        "name": "Palazzo Doria-Spinola",
        "coord": "Point(8.9373 44.41)",
        "lat": "44.41",
        "lon": "8.9373",
        "article": "https://it.wikipedia.org/wiki/Palazzo_Doria-Spinola"
    },
    {
        "item": "http://www.wikidata.org/entity/Q3890059",
        "name": "Palazzo Durazzo-Cattaneo Adorno",
        "coord": "Point(8.92752 44.4127)",
        "lat": "44.4127",
        "lon": "8.92752",
        "article": "https://it.wikipedia.org/wiki/Palazzo_Durazzo-Cattaneo_Adorno"
    },
    {
        "item": "http://www.wikidata.org/entity/Q3890060",
        "name": "Palazzo Durazzo-Pallavicini",
        "coord": "Point(8.92761 44.4144)",
        "lat": "44.4144",
        "lon": "8.92761",
        "article": "https://it.wikipedia.org/wiki/Palazzo_Durazzo-Pallavicini"
    },
    {
        "item": "http://www.wikidata.org/entity/Q3890061",
        "name": "Palazzo Durazzo-Zoagli",
        "coord": "Point(8.92981 44.4081)",
        "lat": "44.4081",
        "lon": "8.92981",
        "article": "https://it.wikipedia.org/wiki/Palazzo_Durazzo-Zoagli"
    },
    {
        "item": "http://www.wikidata.org/entity/Q3890068",
        "name": "Palazzo Emanuele Filiberto Di Negro",
        "coord": "Point(8.92961 44.4094)",
        "lat": "44.4094",
        "lon": "8.92961",
        "article": "https://it.wikipedia.org/wiki/Palazzo_Emanuele_Filiberto_Di_Negro"
    },
    {
        "item": "http://www.wikidata.org/entity/Q3890102",
        "name": "Palazzo Fieschi-Crosa di Vergagni",
        "coord": "Point(8.92845833 44.40701944)",
        "lat": "44.40701944",
        "lon": "8.92845833",
        "article": "https://it.wikipedia.org/wiki/Palazzo_Fieschi-Crosa_di_Vergagni"
    },
    {
        "item": "http://www.wikidata.org/entity/Q3890113",
        "name": "Palazzo Filippo Lomellini",
        "coord": "Point(8.92930833 44.41370833)",
        "lat": "44.41370833",
        "lon": "8.92930833",
        "article": "https://it.wikipedia.org/wiki/Palazzo_Filippo_Lomellini"
    },
    {
        "item": "http://www.wikidata.org/entity/Q3890139",
        "name": "Palazzo Francesco Borsotto",
        "coord": "Point(8.93133333 44.41080833)",
        "lat": "44.41080833",
        "lon": "8.93133333",
        "article": "https://it.wikipedia.org/wiki/Palazzo_Francesco_Borsotto"
    },
    {
        "item": "http://www.wikidata.org/entity/Q3890141",
        "name": "Palazzo Francesco Maria Balbi Piovera",
        "coord": "Point(8.92703611 44.414625)",
        "lat": "44.414625",
        "lon": "8.92703611",
        "article": "https://it.wikipedia.org/wiki/Palazzo_Francesco_Maria_Balbi_Piovera"
    },
    {
        "item": "http://www.wikidata.org/entity/Q3890171",
        "name": "Palazzo Gaspare Basadonne",
        "coord": "Point(8.92935556 44.40673611)",
        "lat": "44.40673611",
        "lon": "8.92935556",
        "article": "https://it.wikipedia.org/wiki/Palazzo_Gaspare_Basadonne"
    },
    {
        "item": "http://www.wikidata.org/entity/Q3890183",
        "name": "Palazzo Gerolamo Grimaldi",
        "coord": "Point(8.93151 44.4117)",
        "lat": "44.4117",
        "lon": "8.93151",
        "article": "https://it.wikipedia.org/wiki/Palazzo_Gerolamo_Grimaldi"
    },
    {
        "item": "http://www.wikidata.org/entity/Q3890184",
        "name": "Palazzo Gerolamo Pallavicini",
        "coord": "Point(8.93425556 44.40954444)",
        "lat": "44.40954444",
        "lon": "8.93425556",
        "article": "https://it.wikipedia.org/wiki/Palazzo_Gerolamo_Pallavicini"
    },
    {
        "item": "http://www.wikidata.org/entity/Q3890188",
        "name": "Palazzo Giacomo Lomellini",
        "coord": "Point(8.92966 44.41356)",
        "lat": "44.41356",
        "lon": "8.92966",
        "article": "https://it.wikipedia.org/wiki/Palazzo_Giacomo_Lomellini"
    },
    {
        "item": "http://www.wikidata.org/entity/Q3890190",
        "name": "Palazzo Giacomo Spinola",
        "coord": "Point(8.93550278 44.40999722)",
        "lat": "44.40999722",
        "lon": "8.93550278",
        "article": "https://it.wikipedia.org/wiki/Palazzo_Giacomo_Spinola"
    },
    {
        "item": "http://www.wikidata.org/entity/Q3890202",
        "name": "Palazzo Gio Andrea Cicala",
        "coord": "Point(8.93058333 44.40746111)",
        "lat": "44.40746111",
        "lon": "8.93058333",
        "article": "https://it.wikipedia.org/wiki/Palazzo_Gio_Andrea_Cicala"
    },
    {
        "item": "http://www.wikidata.org/entity/Q3890204",
        "name": "Palazzo Gio Batta Senarega",
        "coord": "Point(8.93034722 44.40929722)",
        "lat": "44.40929722",
        "lon": "8.93034722",
        "article": "https://it.wikipedia.org/wiki/Palazzo_Gio_Batta_Senarega"
    },
    {
        "item": "http://www.wikidata.org/entity/Q3890206",
        "name": "Palazzo Gio Battista Centurione",
        "coord": "Point(8.92899 44.4121)",
        "lat": "44.4121",
        "lon": "8.92899",
        "article": "https://it.wikipedia.org/wiki/Palazzo_Gio_Battista_Centurione"
    },
    {
        "item": "http://www.wikidata.org/entity/Q5406650",
        "name": "Palazzo Gio Battista Grimaldi",
        "coord": "Point(8.9301 44.41034722)",
        "lat": "44.41034722",
        "lon": "8.9301",
        "article": "https://it.wikipedia.org/wiki/Palazzo_Gio_Battista_Grimaldi_(piazza_San_Luca)"
    },
    {
        "item": "http://www.wikidata.org/entity/Q3890209",
        "name": "Palazzo Gio Battista Grimaldi",
        "coord": "Point(8.92983 44.409)",
        "lat": "44.409",
        "lon": "8.92983",
        "article": "https://it.wikipedia.org/wiki/Palazzo_Gio_Battista_Grimaldi_(vico_San_Luca)"
    },
    {
        "item": "http://www.wikidata.org/entity/Q3890210",
        "name": "Palazzo Gio Battista Saluzzo",
        "coord": "Point(8.93043056 44.40687778)",
        "lat": "44.40687778",
        "lon": "8.93043056",
        "article": "https://it.wikipedia.org/wiki/Palazzo_Gio_Battista_Saluzzo"
    },
    {
        "item": "http://www.wikidata.org/entity/Q3890211",
        "name": "Palazzo Gio Battista Spinola",
        "coord": "Point(8.93363889 44.41084444)",
        "lat": "44.41084444",
        "lon": "8.93363889",
        "article": "https://it.wikipedia.org/wiki/Palazzo_Gio_Battista_Spinola"
    },
    {
        "item": "http://www.wikidata.org/entity/Q3361305",
        "name": "Palazzo Gio Carlo Brignole",
        "coord": "Point(8.93144 44.4115)",
        "lat": "44.4115",
        "lon": "8.93144",
        "article": "https://it.wikipedia.org/wiki/Palazzo_Gio_Carlo_Brignole"
    },
    {
        "item": "http://www.wikidata.org/entity/Q3890212",
        "name": "Palazzo Gio Francesco Balbi",
        "coord": "Point(8.92793333 44.41420278)",
        "lat": "44.41420278",
        "lon": "8.92793333",
        "article": "https://it.wikipedia.org/wiki/Palazzo_Gio_Francesco_Balbi"
    },
    {
        "item": "http://www.wikidata.org/entity/Q3361306",
        "name": "Palazzo Gio Vincenzo Imperiale",
        "coord": "Point(8.9317 44.409)",
        "lat": "44.409",
        "lon": "8.9317",
        "article": "https://it.wikipedia.org/wiki/Palazzo_Gio_Vincenzo_Imperiale"
    },
    {
        "item": "http://www.wikidata.org/entity/Q3890217",
        "name": "Palazzo Giorgio Centurione",
        "coord": "Point(8.92944 44.4124)",
        "lat": "44.4124",
        "lon": "8.92944",
        "article": "https://it.wikipedia.org/wiki/Palazzo_Giorgio_Centurione"
    },
    {
        "item": "http://www.wikidata.org/entity/Q3890218",
        "name": "Palazzo Giorgio Doria",
        "coord": "Point(8.93275 44.408472222)",
        "lat": "44.408472222222",
        "lon": "8.93275",
        "article": "https://it.wikipedia.org/wiki/Palazzo_Giorgio_Doria"
    },
    {
        "item": "http://www.wikidata.org/entity/Q3890219",
        "name": "Palazzo Giorgio Spinola",
        "coord": "Point(8.93602222 44.41018611)",
        "lat": "44.41018611",
        "lon": "8.93602222",
        "article": "https://it.wikipedia.org/wiki/Palazzo_Giorgio_Spinola"
    },
    {
        "item": "http://www.wikidata.org/entity/Q3890220",
        "name": "Palazzo Giovanni Garibaldi",
        "coord": "Point(8.93426 44.4091)",
        "lat": "44.4091",
        "lon": "8.93426",
        "article": "https://it.wikipedia.org/wiki/Palazzo_Giovanni_Garibaldi"
    },
    {
        "item": "http://www.wikidata.org/entity/Q3890228",
        "name": "Palazzo Giulio Pallavicini",
        "coord": "Point(8.933652597 44.407660541)",
        "lat": "44.407660541",
        "lon": "8.9336525975",
        "article": "https://it.wikipedia.org/wiki/Palazzo_Giulio_Pallavicini"
    },
    {
        "item": "http://www.wikidata.org/entity/Q3890229",
        "name": "Palazzo Giulio Sale",
        "coord": "Point(8.92925833 44.40586944)",
        "lat": "44.40586944",
        "lon": "8.92925833",
        "article": "https://it.wikipedia.org/wiki/Palazzo_Giulio_Sale"
    },
    {
        "item": "http://www.wikidata.org/entity/Q3890261",
        "name": "Palazzo Grimaldi",
        "coord": "Point(8.93296667 44.40879722)",
        "lat": "44.40879722",
        "lon": "8.93296667",
        "article": "https://it.wikipedia.org/wiki/Palazzo_Grimaldi_(Genova)"
    },
    {
        "item": "http://www.wikidata.org/entity/Q3890301",
        "name": "Palazzo Jacopo Spinola",
        "coord": "Point(8.93081944 44.41080833)",
        "lat": "44.41080833",
        "lon": "8.93081944",
        "article": "https://it.wikipedia.org/wiki/Palazzo_Jacopo_Spinola"
    },
    {
        "item": "http://www.wikidata.org/entity/Q3890033",
        "name": "Palazzo Lamba Doria",
        "coord": "Point(8.932638888 44.408361111)",
        "lat": "44.408361111111",
        "lon": "8.9326388888889",
        "article": "https://it.wikipedia.org/wiki/Palazzo_Lamba_Doria"
    },
    {
        "item": "http://www.wikidata.org/entity/Q3890327",
        "name": "Palazzo Lazzaro Grimaldi",
        "coord": "Point(8.92989444 44.41066111)",
        "lat": "44.41066111",
        "lon": "8.92989444",
        "article": "https://it.wikipedia.org/wiki/Palazzo_Lazzaro_Grimaldi"
    },
    {
        "item": "http://www.wikidata.org/entity/Q3890337",
        "name": "Palazzo Lercari-Parodi",
        "coord": "Point(8.93444 44.411)",
        "lat": "44.411",
        "lon": "8.93444",
        "article": "https://it.wikipedia.org/wiki/Palazzo_Lercari-Parodi"
    },
    {
        "item": "http://www.wikidata.org/entity/Q3890338",
        "name": "Palazzo Lercari-Spinola",
        "coord": "Point(8.93085 44.40891389)",
        "lat": "44.40891389",
        "lon": "8.93085",
        "article": "https://it.wikipedia.org/wiki/Palazzo_Lercari-Spinola"
    },
    {
        "item": "http://www.wikidata.org/entity/Q3890352",
        "name": "Palazzo Lomellini-Dodero",
        "coord": "Point(8.92951389 44.41267778)",
        "lat": "44.41267778",
        "lon": "8.92951389",
        "article": "https://it.wikipedia.org/wiki/Palazzo_Lomellini-Dodero"
    },
    {
        "item": "http://www.wikidata.org/entity/Q3890351",
        "name": "Palazzo Lomellini-Doria Lamba",
        "coord": "Point(8.9297 44.41316)",
        "lat": "44.41316",
        "lon": "8.9297",
        "article": "https://it.wikipedia.org/wiki/Palazzo_Lomellini-Doria_Lamba"
    },
    {
        "item": "http://www.wikidata.org/entity/Q3890354",
        "name": "Palazzo Lomellini-Serra",
        "coord": "Point(8.92710556 44.41288333)",
        "lat": "44.41288333",
        "lon": "8.92710556",
        "article": "https://it.wikipedia.org/wiki/Palazzo_Lomellini-Serra"
    },
    {
        "item": "http://www.wikidata.org/entity/Q3890358",
        "name": "Palazzo Lorenzo Cattaneo",
        "coord": "Point(8.92916 44.4067)",
        "lat": "44.4067",
        "lon": "8.92916",
        "article": "https://it.wikipedia.org/wiki/Palazzo_Lorenzo_Cattaneo"
    },
    {
        "item": "http://www.wikidata.org/entity/Q3890362",
        "name": "Palazzo Luciano Spinola di Luccoli",
        "coord": "Point(8.93541944 44.41028056)",
        "lat": "44.41028056",
        "lon": "8.93541944",
        "article": "https://it.wikipedia.org/wiki/Palazzo_Luciano_Spinola_di_Luccoli"
    },
    {
        "item": "http://www.wikidata.org/entity/Q3890412",
        "name": "Palazzo Marc'Aurelio Rebuffo",
        "coord": "Point(8.92766 44.4078)",
        "lat": "44.4078",
        "lon": "8.92766",
        "article": "https://it.wikipedia.org/wiki/Palazzo_Marc%27Aurelio_Rebuffo"
    },
    {
        "item": "http://www.wikidata.org/entity/Q3890413",
        "name": "Palazzo Marcantonio Giustiniani",
        "coord": "Point(8.929975 44.407125)",
        "lat": "44.407125",
        "lon": "8.929975",
        "article": "https://it.wikipedia.org/wiki/Palazzo_Marcantonio_Giustiniani"
    },
    {
        "item": "http://www.wikidata.org/entity/Q3890414",
        "name": "Palazzo Marcantonio Sauli",
        "coord": "Point(8.93001 44.4062)",
        "lat": "44.4062",
        "lon": "8.93001",
        "article": "https://it.wikipedia.org/wiki/Palazzo_di_Marcantonio_Sauli"
    },
    {
        "item": "http://www.wikidata.org/entity/Q3890545",
        "name": "Palazzo Negrone",
        "coord": "Point(8.93548889 44.41016944)",
        "lat": "44.41016944",
        "lon": "8.93548889",
        "article": "https://it.wikipedia.org/wiki/Palazzo_Negrone"
    },
    {
        "item": "http://www.wikidata.org/entity/Q3890550",
        "name": "Palazzo Nicola Grimaldi",
        "coord": "Point(8.92996 44.4107)",
        "lat": "44.4107",
        "lon": "8.92996",
        "article": "https://it.wikipedia.org/wiki/Palazzo_Nicola_Grimaldi"
    },
    {
        "item": "http://www.wikidata.org/entity/Q3890551",
        "name": "Palazzo Nicolò Lomellini",
        "coord": "Point(8.92863333 44.4139)",
        "lat": "44.4139",
        "lon": "8.92863333",
        "article": "https://it.wikipedia.org/wiki/Palazzo_Nicol%C3%B2_Lomellini"
    },
    {
        "item": "http://www.wikidata.org/entity/Q3890556",
        "name": "Palazzo Nicolò Spinola di Luccoli",
        "coord": "Point(8.93385833 44.40976111)",
        "lat": "44.40976111",
        "lon": "8.93385833",
        "article": "https://it.wikipedia.org/wiki/Palazzo_Nicol%C3%B2_Spinola_di_Luccoli"
    },
    {
        "item": "http://www.wikidata.org/entity/Q3890553",
        "name": "Palazzo Nicolò Spinola di San Luca",
        "coord": "Point(8.92989167 44.41131944)",
        "lat": "44.41131944",
        "lon": "8.92989167",
        "article": "https://it.wikipedia.org/wiki/Palazzo_Nicol%C3%B2_Spinola_di_San_Luca"
    },
    {
        "item": "http://www.wikidata.org/entity/Q3890568",
        "name": "Palazzo Orazio e Gio Francesco De Franceschi",
        "coord": "Point(8.93104722 44.40755)",
        "lat": "44.40755",
        "lon": "8.93104722",
        "article": "https://it.wikipedia.org/wiki/Palazzo_Orazio_e_Gio_Francesco_De_Franceschi"
    },
    {
        "item": "http://www.wikidata.org/entity/Q122461002",
        "name": "Palazzo Orzali",
        "coord": "Point(8.93794 44.40648)",
        "lat": "44.40648",
        "lon": "8.93794",
        "article": "https://it.wikipedia.org/wiki/Palazzo_Orzali"
    },
    {
        "item": "http://www.wikidata.org/entity/Q3890582",
        "name": "Palazzo Ottavio Imperiale",
        "coord": "Point(8.93159722 44.40906111)",
        "lat": "44.40906111",
        "lon": "8.93159722",
        "article": "https://it.wikipedia.org/wiki/Palazzo_Ottavio_Imperiale"
    },
    {
        "item": "http://www.wikidata.org/entity/Q3890590",
        "name": "Palazzo Pallavicini-Cambiaso",
        "coord": "Point(8.93475278 44.41090833)",
        "lat": "44.41090833",
        "lon": "8.93475278",
        "article": "https://it.wikipedia.org/wiki/Palazzo_Pallavicini-Cambiaso"
    },
    {
        "item": "http://www.wikidata.org/entity/Q3890591",
        "name": "Palazzo Pallavicini-Fabiani",
        "coord": "Point(8.92829722 44.41165278)",
        "lat": "44.41165278",
        "lon": "8.92829722",
        "article": "https://it.wikipedia.org/wiki/Palazzo_Pallavicini-Fabiani"
    },
    {
        "item": "http://www.wikidata.org/entity/Q3890608",
        "name": "Palazzo Pantaleo Spinola",
        "coord": "Point(8.93473611 44.4109)",
        "lat": "44.4109",
        "lon": "8.93473611",
        "article": "https://it.wikipedia.org/wiki/Palazzo_Pantaleo_Spinola"
    },
    {
        "item": "http://www.wikidata.org/entity/Q1123712",
        "name": "Palazzo Paolo Battista e Niccolò Interiano",
        "coord": "Point(8.9351 44.4105)",
        "lat": "44.4105",
        "lon": "8.9351",
        "article": "https://it.wikipedia.org/wiki/Palazzo_Paolo_Battista_e_Niccol%C3%B2_Interiano"
    },
    {
        "item": "http://www.wikidata.org/entity/Q3890610",
        "name": "Palazzo Paolo De Benedetti",
        "coord": "Point(8.93127222 44.40571111)",
        "lat": "44.40571111",
        "lon": "8.93127222",
        "article": "https://it.wikipedia.org/wiki/Palazzo_Paolo_De_Benedetti"
    },
    {
        "item": "http://www.wikidata.org/entity/Q3890659",
        "name": "Palazzo Pietro Durazzo",
        "coord": "Point(8.92995556 44.40875278)",
        "lat": "44.40875278",
        "lon": "8.92995556",
        "article": "https://it.wikipedia.org/wiki/Palazzo_Pietro_Durazzo"
    },
    {
        "item": "http://www.wikidata.org/entity/Q3361318",
        "name": "Palazzo Pietro Spinola di San Luca",
        "coord": "Point(8.93051 44.4107)",
        "lat": "44.4107",
        "lon": "8.93051",
        "article": "https://it.wikipedia.org/wiki/Palazzo_Pietro_Spinola_di_San_Luca"
    },
    {
        "item": "http://www.wikidata.org/entity/Q3890671",
        "name": "Palazzo Pinelli-Parodi",
        "coord": "Point(8.92898 44.4111)",
        "lat": "44.4111",
        "lon": "8.92898",
        "article": "https://it.wikipedia.org/wiki/Palazzo_Pinelli-Parodi"
    },
    {
        "item": "http://www.wikidata.org/entity/Q964943",
        "name": "Palazzo Podestà",
        "coord": "Point(8.93339 44.41116)",
        "lat": "44.41116",
        "lon": "8.93339",
        "article": "https://it.wikipedia.org/wiki/Palazzo_Podest%C3%A0"
    },
    {
        "item": "http://www.wikidata.org/entity/Q1514006",
        "name": "Palazzo Reale di Genova",
        "coord": "Point(8.92616 44.414913)",
        "lat": "44.414913",
        "lon": "8.92616",
        "article": "https://it.wikipedia.org/wiki/Palazzo_Reale_(Genova)"
    },
    {
        "item": "http://www.wikidata.org/entity/Q3361326",
        "name": "Palazzo Saluzzo",
        "coord": "Point(8.92928 44.4125)",
        "lat": "44.4125",
        "lon": "8.92928",
        "article": "https://it.wikipedia.org/wiki/Palazzo_Alessandro_Saluzzo"
    },
    {
        "item": "http://www.wikidata.org/entity/Q533269",
        "name": "Palazzo San Giorgio",
        "coord": "Point(8.92886111 44.40919444)",
        "lat": "44.40919444",
        "lon": "8.92886111",
        "article": "https://it.wikipedia.org/wiki/Palazzo_San_Giorgio_(Genova)"
    },
    {
        "item": "http://www.wikidata.org/entity/Q3890851",
        "name": "Palazzo Sauli",
        "coord": "Point(8.93111944 44.40845278)",
        "lat": "44.40845278",
        "lon": "8.93111944",
        "article": "https://it.wikipedia.org/wiki/Palazzo_Sauli"
    },
    {
        "item": "http://www.wikidata.org/entity/Q3890876",
        "name": "Palazzo Senarega-Zoagli",
        "coord": "Point(8.93026667 44.40784722)",
        "lat": "44.40784722",
        "lon": "8.93026667",
        "article": "https://it.wikipedia.org/wiki/Palazzo_Senarega-Zoagli"
    },
    {
        "item": "http://www.wikidata.org/entity/Q3361331",
        "name": "Palazzo Sinibaldo Fieschi",
        "coord": "Point(8.93092 44.4076)",
        "lat": "44.4076",
        "lon": "8.93092",
        "article": "https://it.wikipedia.org/wiki/Palazzo_Sinibaldo_Fieschi"
    },
    {
        "item": "http://www.wikidata.org/entity/Q3890943",
        "name": "Palazzo Spinola di Luccoli-Balestrino",
        "coord": "Point(8.93479722 44.410125)",
        "lat": "44.410125",
        "lon": "8.93479722",
        "article": "https://it.wikipedia.org/wiki/Palazzo_Spinola_di_Luccoli-Balestrino"
    },
    {
        "item": "http://www.wikidata.org/entity/Q3890944",
        "name": "Palazzo Spinola di Luccoli-Cervetto",
        "coord": "Point(8.93557 44.4101)",
        "lat": "44.4101",
        "lon": "8.93557",
        "article": "https://it.wikipedia.org/wiki/Palazzo_Spinola_di_Luccoli-Cervetto"
    },
    {
        "item": "http://www.wikidata.org/entity/Q3361333",
        "name": "Palazzo Spinola di Pellicceria",
        "coord": "Point(8.93091 44.4106)",
        "lat": "44.4106",
        "lon": "8.93091",
        "article": "https://it.wikipedia.org/wiki/Palazzo_Spinola_di_Pellicceria"
    },
    {
        "item": "http://www.wikidata.org/entity/Q3890948",
        "name": "Palazzo Spinola di San Luca",
        "coord": "Point(8.92925556 44.41000556)",
        "lat": "44.41000556",
        "lon": "8.92925556",
        "article": "https://it.wikipedia.org/wiki/Palazzo_Spinola_di_San_Luca"
    },
    {
        "item": "http://www.wikidata.org/entity/Q3890947",
        "name": "Palazzo Spinola di San Luca-Gentile",
        "coord": "Point(8.92968611 44.41099444)",
        "lat": "44.41099444",
        "lon": "8.92968611",
        "article": "https://it.wikipedia.org/wiki/Palazzo_Spinola_di_San_Luca-Gentile"
    },
    {
        "item": "http://www.wikidata.org/entity/Q3890937",
        "name": "Palazzo Spinola-Celesia",
        "coord": "Point(8.93591111 44.40981944)",
        "lat": "44.40981944",
        "lon": "8.93591111",
        "article": "https://it.wikipedia.org/wiki/Palazzo_Spinola-Celesia"
    },
    {
        "item": "http://www.wikidata.org/entity/Q3890951",
        "name": "Palazzo Stefano De Mari",
        "coord": "Point(8.93 44.4089)",
        "lat": "44.4089",
        "lon": "8.93",
        "article": "https://it.wikipedia.org/wiki/Palazzo_Stefano_De_Mari"
    },
    {
        "item": "http://www.wikidata.org/entity/Q3890997",
        "name": "Palazzo Tommaso Franzone",
        "coord": "Point(8.93325833 44.40958056)",
        "lat": "44.40958056",
        "lon": "8.93325833",
        "article": "https://it.wikipedia.org/wiki/Palazzo_Tommaso_Franzone"
    },
    {
        "item": "http://www.wikidata.org/entity/Q3890998",
        "name": "Palazzo Tommaso Spinola",
        "coord": "Point(8.93600278 44.41018333)",
        "lat": "44.41018333",
        "lon": "8.93600278",
        "article": "https://it.wikipedia.org/wiki/Palazzo_Tommaso_Spinola"
    },
    {
        "item": "http://www.wikidata.org/entity/Q3843087",
        "name": "Palazzo Verde",
        "coord": "Point(8.92654 44.40689)",
        "lat": "44.40689",
        "lon": "8.92654",
        "article": "https://it.wikipedia.org/wiki/Magazzini_dell%27Abbondanza"
    },
    {
        "item": "http://www.wikidata.org/entity/Q3891085",
        "name": "Palazzo Vincenzo Giustiniani Banca",
        "coord": "Point(8.92974444 44.40685278)",
        "lat": "44.40685278",
        "lon": "8.92974444",
        "article": "https://it.wikipedia.org/wiki/Palazzo_Vincenzo_Giustiniani_Banca"
    },
    {
        "item": "http://www.wikidata.org/entity/Q116378506",
        "name": "Palazzo Zuccarino",
        "coord": "Point(8.941126667 44.404830304)",
        "lat": "44.404830304485",
        "lon": "8.9411266671052",
        "article": "https://it.wikipedia.org/wiki/Palazzo_Zuccarino"
    },
    {
        "item": "http://www.wikidata.org/entity/Q113592569",
        "name": "Palazzo dell'Accademia ligustica di belle arti",
        "coord": "Point(8.934776443 44.407539426)",
        "lat": "44.407539426",
        "lon": "8.9347764431",
        "article": "https://it.wikipedia.org/wiki/Palazzo_dell%27Accademia_ligustica_di_belle_arti"
    },
    {
        "item": "http://www.wikidata.org/entity/Q24942380",
        "name": "Palazzo dell'Università di Genova",
        "coord": "Point(8.926713 44.414925)",
        "lat": "44.414925",
        "lon": "8.926713",
        "article": "https://it.wikipedia.org/wiki/Palazzo_dell%27Universit%C3%A0_di_Genova"
    },
    {
        "item": "http://www.wikidata.org/entity/Q25296546",
        "name": "Palazzo della Banca d'Italia",
        "coord": "Point(8.93465 44.40594)",
        "lat": "44.40594",
        "lon": "8.93465",
        "article": "https://it.wikipedia.org/wiki/Palazzo_della_Banca_d%27Italia_(Genova)"
    },
    {
        "item": "http://www.wikidata.org/entity/Q21194453",
        "name": "Palazzo della Borsa",
        "coord": "Point(8.93456 44.40688)",
        "lat": "44.40688",
        "lon": "8.93456",
        "article": "https://it.wikipedia.org/wiki/Palazzo_della_Borsa_(Genova)"
    },
    {
        "item": "http://www.wikidata.org/entity/Q50697061",
        "name": "Palazzo della Regione Liguria",
        "coord": "Point(8.933572578 44.406721676)",
        "lat": "44.406721676",
        "lon": "8.9335725781",
        "article": "https://it.wikipedia.org/wiki/Palazzo_della_Regione_Liguria"
    },
    {
        "item": "http://www.wikidata.org/entity/Q1576596",
        "name": "Parchi di Nervi",
        "coord": "Point(9.04611 44.3808)",
        "lat": "44.3808",
        "lon": "9.04611",
        "article": "https://it.wikipedia.org/wiki/Parchi_di_Nervi"
    },
    {
        "item": "http://www.wikidata.org/entity/Q3897243",
        "name": "Passeggiata Anita Garibaldi",
        "coord": "Point(9.04611111 44.38083333)",
        "lat": "44.38083333",
        "lon": "9.04611111",
        "article": "https://it.wikipedia.org/wiki/Passeggiata_Anita_Garibaldi"
    },
    {
        "item": "http://www.wikidata.org/entity/Q833271",
        "name": "Pegli",
        "coord": "Point(8.814444444 44.425277777)",
        "lat": "44.425277777778",
        "lon": "8.8144444444444",
        "article": "https://it.wikipedia.org/wiki/Pegli"
    },
    {
        "item": "http://www.wikidata.org/entity/Q3902017",
        "name": "Piano di Sant'Andrea",
        "coord": "Point(8.93447 44.405546)",
        "lat": "44.405546",
        "lon": "8.93447",
        "article": "https://it.wikipedia.org/wiki/Piano_di_Sant%27Andrea"
    },
    {
        "item": "http://www.wikidata.org/entity/Q63452508",
        "name": "Piazza Fontane Marose",
        "coord": "Point(8.93497 44.41038)",
        "lat": "44.41038",
        "lon": "8.93497",
        "article": "https://it.wikipedia.org/wiki/Piazza_delle_Fontane_Marose"
    },
    {
        "item": "http://www.wikidata.org/entity/Q63453597",
        "name": "Piazza della Meridiana",
        "coord": "Point(8.93137 44.41159)",
        "lat": "44.41159",
        "lon": "8.93137",
        "article": "https://it.wikipedia.org/wiki/Piazza_della_Meridiana"
    },
    {
        "item": "http://www.wikidata.org/entity/Q86669301",
        "name": "Piscine di Albaro",
        "coord": "Point(8.968033769 44.39418173)",
        "lat": "44.394181730556",
        "lon": "8.9680337694444",
        "article": "https://it.wikipedia.org/wiki/Piscine_di_Albaro"
    },
    {
        "item": "http://www.wikidata.org/entity/Q3907408",
        "name": "Politeama Genovese",
        "coord": "Point(8.93805556 44.41138889)",
        "lat": "44.41138889",
        "lon": "8.93805556",
        "article": "https://it.wikipedia.org/wiki/Politeama_Genovese"
    },
    {
        "item": "http://www.wikidata.org/entity/Q50378230",
        "name": "Ponte Carrega",
        "coord": "Point(8.962399037 44.435825825)",
        "lat": "44.435825825",
        "lon": "8.9623990379",
        "article": "https://it.wikipedia.org/wiki/Ponte_Carrega"
    },
    {
        "item": "http://www.wikidata.org/entity/Q1057202",
        "name": "Pontedecimo",
        "coord": "Point(8.903338888 44.499594444)",
        "lat": "44.499594444444",
        "lon": "8.9033388888889",
        "article": "https://it.wikipedia.org/wiki/Pontedecimo"
    },
    {
        "item": "http://www.wikidata.org/entity/Q27913853",
        "name": "Porta Siberia",
        "coord": "Point(8.924722299 44.407814574)",
        "lat": "44.407814574",
        "lon": "8.9247222997",
        "article": "https://it.wikipedia.org/wiki/Porta_Siberia"
    },
    {
        "item": "http://www.wikidata.org/entity/Q27949268",
        "name": "Porta dei Vacca",
        "coord": "Point(8.92723 44.41294)",
        "lat": "44.41294",
        "lon": "8.92723",
        "article": "https://it.wikipedia.org/wiki/Porta_dei_Vacca"
    },
    {
        "item": "http://www.wikidata.org/entity/Q48807737",
        "name": "Portale del trionfo Doria",
        "coord": "Point(8.933166 44.408766)",
        "lat": "44.408766",
        "lon": "8.933166",
        "article": "https://it.wikipedia.org/wiki/Portale_del_trionfo_Doria"
    },
    {
        "item": "http://www.wikidata.org/entity/Q3909171",
        "name": "Porto Petroli di Genova",
        "coord": "Point(8.831742 44.423605)",
        "lat": "44.423605",
        "lon": "8.831742",
        "article": "https://it.wikipedia.org/wiki/Porto_Petroli_di_Genova"
    },
    {
        "item": "http://www.wikidata.org/entity/Q3909329",
        "name": "Portoria",
        "coord": "Point(8.9375 44.4075)",
        "lat": "44.4075",
        "lon": "8.9375",
        "article": "https://it.wikipedia.org/wiki/Portoria"
    },
    {
        "item": "http://www.wikidata.org/entity/Q3401166",
        "name": "Pra'",
        "coord": "Point(8.79083333 44.42666667)",
        "lat": "44.42666667",
        "lon": "8.79083333",
        "article": "https://it.wikipedia.org/wiki/Pra%27"
    },
    {
        "item": "http://www.wikidata.org/entity/Q1406182",
        "name": "Prè",
        "coord": "Point(8.925 44.41472222)",
        "lat": "44.41472222",
        "lon": "8.925",
        "article": "https://it.wikipedia.org/wiki/Pr%C3%A8"
    },
    {
        "item": "http://www.wikidata.org/entity/Q3925251",
        "name": "Pubblica Assistenza Croce Verde Sestri Ponente",
        "coord": "Point(8.85069444 44.42569444)",
        "lat": "44.42569444",
        "lon": "8.85069444",
        "article": "https://it.wikipedia.org/wiki/Pubblica_Assistenza_Croce_Verde_Sestri_Ponente"
    },
    {
        "item": "http://www.wikidata.org/entity/Q531979",
        "name": "Quarto dei Mille",
        "coord": "Point(8.99194 44.3892)",
        "lat": "44.3892",
        "lon": "8.99194",
        "article": "https://it.wikipedia.org/wiki/Quarto_dei_Mille"
    },
    {
        "item": "http://www.wikidata.org/entity/Q2123040",
        "name": "Quezzi",
        "coord": "Point(8.96694444 44.42)",
        "lat": "44.42",
        "lon": "8.96694444",
        "article": "https://it.wikipedia.org/wiki/Quezzi"
    },
    {
        "item": "http://www.wikidata.org/entity/Q833262",
        "name": "Quinto al Mare",
        "coord": "Point(9.02055556 44.38527778)",
        "lat": "44.38527778",
        "lon": "9.02055556",
        "article": "https://it.wikipedia.org/wiki/Quinto_al_Mare"
    },
    {
        "item": "http://www.wikidata.org/entity/Q3935734",
        "name": "Righi",
        "coord": "Point(8.93782778 44.42420556)",
        "lat": "44.42420556",
        "lon": "8.93782778",
        "article": "https://it.wikipedia.org/wiki/Righi"
    },
    {
        "item": "http://www.wikidata.org/entity/Q745392",
        "name": "Rivarolo",
        "coord": "Point(8.89305556 44.44472222)",
        "lat": "44.44472222",
        "lon": "8.89305556",
        "article": "https://it.wikipedia.org/wiki/Rivarolo_(Genova)"
    },
    {
        "item": "http://www.wikidata.org/entity/Q86669626",
        "name": "Sala Mercato",
        "coord": "Point(8.89009 44.41047)",
        "lat": "44.41047",
        "lon": "8.89009",
        "article": "https://it.wikipedia.org/wiki/Sala_Mercato"
    },
    {
        "item": "http://www.wikidata.org/entity/Q1930172",
        "name": "Sampierdarena",
        "coord": "Point(8.89777778 44.41296111)",
        "lat": "44.41296111",
        "lon": "8.89777778",
        "article": "https://it.wikipedia.org/wiki/Sampierdarena"
    },
    {
        "item": "http://www.wikidata.org/entity/Q518495",
        "name": "San Benigno",
        "coord": "Point(8.90333333 44.40861111)",
        "lat": "44.40861111",
        "lon": "8.90333333",
        "article": "https://it.wikipedia.org/wiki/San_Benigno_(Genova)"
    },
    {
        "item": "http://www.wikidata.org/entity/Q3946925",
        "name": "San Desiderio",
        "coord": "Point(9.0129 44.4224)",
        "lat": "44.4224",
        "lon": "9.0129",
        "article": "https://it.wikipedia.org/wiki/San_Desiderio_(Genova)"
    },
    {
        "item": "http://www.wikidata.org/entity/Q2219563",
        "name": "San Fruttuoso",
        "coord": "Point(8.95694444 44.40694444)",
        "lat": "44.40694444",
        "lon": "8.95694444",
        "article": "https://it.wikipedia.org/wiki/San_Fruttuoso_(Genova)"
    },
    {
        "item": "http://www.wikidata.org/entity/Q3947244",
        "name": "San Giovanni Battista",
        "coord": "Point(8.85166667 44.43277778)",
        "lat": "44.43277778",
        "lon": "8.85166667",
        "article": "https://it.wikipedia.org/wiki/San_Giovanni_Battista_(Genova)"
    },
    {
        "item": "http://www.wikidata.org/entity/Q3947862",
        "name": "San Quirico",
        "coord": "Point(8.90027778 44.48555556)",
        "lat": "44.48555556",
        "lon": "8.90027778",
        "article": "https://it.wikipedia.org/wiki/San_Quirico_(Genova)"
    },
    {
        "item": "http://www.wikidata.org/entity/Q3947996",
        "name": "San Teodoro",
        "coord": "Point(8.91027778 44.41333333)",
        "lat": "44.41333333",
        "lon": "8.91027778",
        "article": "https://it.wikipedia.org/wiki/San_Teodoro_(Genova)"
    },
    {
        "item": "http://www.wikidata.org/entity/Q85665604",
        "name": "Sant'Antonino",
        "coord": "Point(8.943014 44.431435)",
        "lat": "44.431435",
        "lon": "8.943014",
        "article": "https://it.wikipedia.org/wiki/Chiesa_di_Sant%27Antonino_(Genova,_Staglieno)"
    },
    {
        "item": "http://www.wikidata.org/entity/Q3948858",
        "name": "Sant'Eusebio",
        "coord": "Point(8.988055555 44.444166666)",
        "lat": "44.444166666667",
        "lon": "8.9880555555556",
        "article": "https://it.wikipedia.org/wiki/Sant%27Eusebio_(Genova)"
    },
    {
        "item": "http://www.wikidata.org/entity/Q2223893",
        "name": "Sant'Ilario",
        "coord": "Point(9.054675 44.38103611)",
        "lat": "44.38103611",
        "lon": "9.054675",
        "article": "https://it.wikipedia.org/wiki/Sant%27Ilario_(Genova)"
    },
    {
        "item": "http://www.wikidata.org/entity/Q123693160",
        "name": "Santi Cosma e Damiano",
        "coord": "Point(9.020833333 44.453888888)",
        "lat": "44.453888888889",
        "lon": "9.0208333333333",
        "article": "https://it.wikipedia.org/wiki/Chiesa_dei_Santi_Cosma_e_Damiano_(Genova,_Struppa)"
    },
    {
        "item": "http://www.wikidata.org/entity/Q77438141",
        "name": "Santuario di Nostra Signora del Garbo",
        "coord": "Point(8.908372 44.436444)",
        "lat": "44.436444",
        "lon": "8.908372",
        "article": "https://it.wikipedia.org/wiki/Chiesa_di_Santa_Maria_del_Garbo"
    },
    {
        "item": "http://www.wikidata.org/entity/Q833878",
        "name": "Sestri Ponente",
        "coord": "Point(8.85 44.424)",
        "lat": "44.424",
        "lon": "8.85",
        "article": "https://it.wikipedia.org/wiki/Sestri_Ponente"
    },
    {
        "item": "http://www.wikidata.org/entity/Q2115843",
        "name": "Sommergibile Nazario Sauro",
        "coord": "Point(8.92426 44.41348)",
        "lat": "44.41348",
        "lon": "8.92426",
        "article": "https://it.wikipedia.org/wiki/Nazario_Sauro_(S_518)"
    },
    {
        "item": "http://www.wikidata.org/entity/Q3491410",
        "name": "Sottoripa",
        "coord": "Point(8.92933333 44.40963889)",
        "lat": "44.40963889",
        "lon": "8.92933333",
        "article": "https://it.wikipedia.org/wiki/Sottoripa"
    },
    {
        "item": "http://www.wikidata.org/entity/Q3967756",
        "name": "Stadio Carlini-Bollesan",
        "coord": "Point(8.97889 44.4058)",
        "lat": "44.4058",
        "lon": "8.97889",
        "article": "https://it.wikipedia.org/wiki/Stadio_Giacomo_Carlini_-_Marco_Bollesan"
    },
    {
        "item": "http://www.wikidata.org/entity/Q2328876",
        "name": "Staglieno",
        "coord": "Point(8.94805556 44.425)",
        "lat": "44.425",
        "lon": "8.94805556",
        "article": "https://it.wikipedia.org/wiki/Staglieno"
    },
    {
        "item": "http://www.wikidata.org/entity/Q10293286",
        "name": "Strade Nuove e complesso dei Palazzi dei Rolli di Genova",
        "coord": "Point(8.931111111 44.412222222)",
        "lat": "44.412222222222",
        "lon": "8.9311111111111",
        "article": "https://it.wikipedia.org/wiki/Le_Strade_Nuove_e_il_sistema_dei_palazzi_dei_Rolli_di_Genova"
    },
    {
        "item": "http://www.wikidata.org/entity/Q3976164",
        "name": "Struppa",
        "coord": "Point(9.0075 44.4483)",
        "lat": "44.4483",
        "lon": "9.0075",
        "article": "https://it.wikipedia.org/wiki/Struppa"
    },
    {
        "item": "http://www.wikidata.org/entity/Q3976362",
        "name": "Sturla",
        "coord": "Point(8.9846 44.392)",
        "lat": "44.392",
        "lon": "8.9846",
        "article": "https://it.wikipedia.org/wiki/Sturla_(torrente)"
    },
    {
        "item": "http://www.wikidata.org/entity/Q1422315",
        "name": "Sturla",
        "coord": "Point(8.98444444 44.39375)",
        "lat": "44.39375",
        "lon": "8.98444444",
        "article": "https://it.wikipedia.org/wiki/Sturla_(Genova)"
    },
    {
        "item": "http://www.wikidata.org/entity/Q72695056",
        "name": "Teatro Akropolis",
        "coord": "Point(8.857312 44.423405)",
        "lat": "44.423405",
        "lon": "8.857312",
        "article": "https://it.wikipedia.org/wiki/Teatro_Akropolis"
    },
    {
        "item": "http://www.wikidata.org/entity/Q3981896",
        "name": "Teatro Albatros",
        "coord": "Point(8.89166667 44.43527778)",
        "lat": "44.43527778",
        "lon": "8.89166667",
        "article": "https://it.wikipedia.org/wiki/Teatro_Albatros"
    },
    {
        "item": "http://www.wikidata.org/entity/Q83471989",
        "name": "Teatro Carignano",
        "coord": "Point(8.93786 44.40016)",
        "lat": "44.40016",
        "lon": "8.93786",
        "article": "https://it.wikipedia.org/wiki/Teatro_Carignano_(Genova)"
    },
    {
        "item": "http://www.wikidata.org/entity/Q118434028",
        "name": "Teatro Colombo",
        "coord": "Point(8.937475061 44.406950082)",
        "lat": "44.406950082404",
        "lon": "8.9374750617654",
        "article": "https://it.wikipedia.org/wiki/Teatro_Colombo"
    },
    {
        "item": "http://www.wikidata.org/entity/Q3981969",
        "name": "Teatro Eleonora Duse",
        "coord": "Point(8.93833333 44.41138889)",
        "lat": "44.41138889",
        "lon": "8.93833333",
        "article": "https://it.wikipedia.org/wiki/Teatro_Eleonora_Duse_(Genova)"
    },
    {
        "item": "http://www.wikidata.org/entity/Q3982117",
        "name": "Teatro Govi",
        "coord": "Point(8.90181184 44.46234851)",
        "lat": "44.46234851",
        "lon": "8.90181184",
        "article": "https://it.wikipedia.org/wiki/Teatro_Govi"
    },
    {
        "item": "http://www.wikidata.org/entity/Q21192656",
        "name": "Teatro Gustavo Modena",
        "coord": "Point(8.889785599 44.410687282)",
        "lat": "44.410687282694",
        "lon": "8.8897855992679",
        "article": "https://it.wikipedia.org/wiki/Teatro_Gustavo_Modena_(Genova)"
    },
    {
        "item": "http://www.wikidata.org/entity/Q121367604",
        "name": "Teatro Ivo Chiesa",
        "coord": "Point(8.948007161 44.404620761)",
        "lat": "44.404620761111",
        "lon": "8.9480071611111",
        "article": "https://it.wikipedia.org/wiki/Teatro_Ivo_Chiesa"
    },
    {
        "item": "http://www.wikidata.org/entity/Q83471820",
        "name": "Teatro Margherita (Genova)",
        "coord": "Point(8.939940787 44.405436525)",
        "lat": "44.40543652555",
        "lon": "8.9399407875041",
        "article": "https://it.wikipedia.org/wiki/Teatro_Margherita_(Genova)"
    },
    {
        "item": "http://www.wikidata.org/entity/Q3982323",
        "name": "Teatro Nazionale di Genova",
        "coord": "Point(8.948007157 44.40462076)",
        "lat": "44.404620760668",
        "lon": "8.9480071570477",
        "article": "https://it.wikipedia.org/wiki/Teatro_Nazionale_di_Genova"
    },
    {
        "item": "http://www.wikidata.org/entity/Q46487869",
        "name": "Teatro Paganini",
        "coord": "Point(8.93461 44.41332)",
        "lat": "44.41332",
        "lon": "8.93461",
        "article": "https://it.wikipedia.org/wiki/Teatro_Paganini_(Genova)"
    },
    {
        "item": "http://www.wikidata.org/entity/Q16612535",
        "name": "Teatro Verdi",
        "coord": "Point(8.85007 44.42647)",
        "lat": "44.42647",
        "lon": "8.85007",
        "article": "https://it.wikipedia.org/wiki/Teatro_Verdi_(Genova)"
    },
    {
        "item": "http://www.wikidata.org/entity/Q3982207",
        "name": "Teatro Von Pauer",
        "coord": "Point(8.9565697 44.41152)",
        "lat": "44.41152",
        "lon": "8.9565697",
        "article": "https://it.wikipedia.org/wiki/Teatro_Von_Pauer"
    },
    {
        "item": "http://www.wikidata.org/entity/Q121323693",
        "name": "Teatro del Ponente",
        "coord": "Point(8.7488768 44.4279883)",
        "lat": "44.4279883",
        "lon": "8.7488768",
        "article": "https://it.wikipedia.org/wiki/Teatro_del_Ponente"
    },
    {
        "item": "http://www.wikidata.org/entity/Q3982291",
        "name": "Teatro dell'Archivolto",
        "coord": "Point(8.93194444 44.405)",
        "lat": "44.405",
        "lon": "8.93194444",
        "article": "https://it.wikipedia.org/wiki/Teatro_dell%27Archivolto"
    },
    {
        "item": "http://www.wikidata.org/entity/Q19060499",
        "name": "Teatro di sant'Agostino",
        "coord": "Point(8.931611 44.404722)",
        "lat": "44.404722",
        "lon": "8.931611",
        "article": "https://it.wikipedia.org/wiki/Teatro_di_Sant%27Agostino"
    },
    {
        "item": "http://www.wikidata.org/entity/Q24939316",
        "name": "Terrazze di marmo",
        "coord": "Point(8.927798 44.411457)",
        "lat": "44.411457",
        "lon": "8.927798",
        "article": "https://it.wikipedia.org/wiki/Terrazze_di_marmo"
    },
    {
        "item": "http://www.wikidata.org/entity/Q56635046",
        "name": "Tomba Perani",
        "coord": "Point(8.9487454 44.4292761)",
        "lat": "44.4292761",
        "lon": "8.9487454",
        "article": "https://it.wikipedia.org/wiki/Tomba_Perani"
    },
    {
        "item": "http://www.wikidata.org/entity/Q56634936",
        "name": "Tomba di Caterina Campodonico",
        "coord": "Point(8.949539 44.429571694)",
        "lat": "44.429571694444",
        "lon": "8.949539",
        "article": "https://it.wikipedia.org/wiki/Statua_di_Caterina_Campodonico"
    },
    {
        "item": "http://www.wikidata.org/entity/Q113009032",
        "name": "Torre MSC",
        "coord": "Point(8.901964583 44.407336259)",
        "lat": "44.407336259678",
        "lon": "8.9019645838807",
        "article": "https://it.wikipedia.org/wiki/Torre_MSC"
    },
    {
        "item": "http://www.wikidata.org/entity/Q2571475",
        "name": "Torre Piacentini",
        "coord": "Point(8.93583 44.4056)",
        "lat": "44.4056",
        "lon": "8.93583",
        "article": "https://it.wikipedia.org/wiki/Torre_Piacentini"
    },
    {
        "item": "http://www.wikidata.org/entity/Q3995250",
        "name": "Torre Quezzi",
        "coord": "Point(8.97178056 44.42896944)",
        "lat": "44.42896944",
        "lon": "8.97178056",
        "article": "https://it.wikipedia.org/wiki/Torre_Quezzi"
    },
    {
        "item": "http://www.wikidata.org/entity/Q3995259",
        "name": "Torre San Bernardino",
        "coord": "Point(8.9434 44.4177)",
        "lat": "44.4177",
        "lon": "8.9434",
        "article": "https://it.wikipedia.org/wiki/Torre_San_Bernardino"
    },
    {
        "item": "http://www.wikidata.org/entity/Q3995265",
        "name": "Torre San Vincenzo",
        "coord": "Point(8.94484 44.4065)",
        "lat": "44.4065",
        "lon": "8.94484",
        "article": "https://it.wikipedia.org/wiki/Torre_San_Vincenzo_(Genova)"
    },
    {
        "item": "http://www.wikidata.org/entity/Q113017306",
        "name": "Torre Shipping",
        "coord": "Point(8.901066986 44.407843943)",
        "lat": "44.407843943309",
        "lon": "8.9010669866239",
        "article": "https://it.wikipedia.org/wiki/Torre_Shipping"
    },